[{"Id":337,"country":"PL","name":"Lubochnia","lat":"51.60794","lng":"20.05391"},{"Id":338,"country":"PL","name":"Lubomierz","lat":"49.60854","lng":"20.20214"},{"Id":339,"country":"PL","name":"Lubomino","lat":"54.06684","lng":"20.23956"},{"Id":340,"country":"PL","name":"\u0141askarzew","lat":"51.78993","lng":"21.59122"},{"Id":341,"country":"PL","name":"Lubycza Kr\u00F3lewska","lat":"50.34102","lng":"23.51941"},{"Id":342,"country":"PL","name":"\u0141uk\u00F3w","lat":"51.929","lng":"22.37956"},{"Id":343,"country":"PL","name":"\u0141ukowa","lat":"50.093","lng":"20.97548"},{"Id":344,"country":"PL","name":"\u0141ukowa","lat":"50.37426","lng":"22.94349"},{"Id":345,"country":"PL","name":"\u0141ukowica","lat":"49.6111","lng":"20.48289"},{"Id":346,"country":"PL","name":"Lipsko","lat":"51.15954","lng":"21.64933"},{"Id":347,"country":"PL","name":"Lipsk","lat":"53.73312","lng":"23.40225"},{"Id":348,"country":"PL","name":"Lipowiec Ko\u015Bcielny","lat":"53.10459","lng":"20.17639"},{"Id":349,"country":"PL","name":"Lipinki","lat":"49.67296","lng":"21.29288"},{"Id":350,"country":"PL","name":"Ludwin","lat":"51.34605","lng":"22.90581"},{"Id":351,"country":"PL","name":"G\u0142uch\u00F3w","lat":"50.08171","lng":"22.27135"},{"Id":352,"country":"PL","name":"G\u0142og\u00F3w Ma\u0142opolski","lat":"50.15122","lng":"21.96287"},{"Id":353,"country":"PL","name":"Glinojeck","lat":"52.81983","lng":"20.29198"},{"Id":354,"country":"PL","name":"Tarnawatka","lat":"50.53154","lng":"23.3959"},{"Id":355,"country":"PL","name":"Tarnobrzeg","lat":"50.57304","lng":"21.67937"},{"Id":356,"country":"PL","name":"Tarnogr\u00F3d","lat":"50.3609","lng":"22.74174"},{"Id":357,"country":"PL","name":"Tarn\u00F3w","lat":"50.01381","lng":"20.98698"},{"Id":358,"country":"PL","name":"Tarnowiec","lat":"49.73108","lng":"21.57663"},{"Id":359,"country":"PL","name":"Tarnowiec","lat":"49.98164","lng":"20.98655"},{"Id":360,"country":"PL","name":"Szyd\u0142\u00F3w","lat":"50.59114","lng":"21.0068"},{"Id":361,"country":"PL","name":"Czerwin","lat":"52.94905","lng":"21.75842"},{"Id":362,"country":"PL","name":"Tar\u0142\u00F3w","lat":"51.0016","lng":"21.71474"},{"Id":363,"country":"PL","name":"Olecko","lat":"54.03374","lng":"22.50704"},{"Id":364,"country":"PL","name":"Jan\u00F3w","lat":"53.46747","lng":"23.23052"},{"Id":365,"country":"PL","name":"Janowice","lat":"49.89154","lng":"20.86081"},{"Id":366,"country":"PL","name":"Janowiec","lat":"51.32359","lng":"21.8894"},{"Id":367,"country":"PL","name":"Jan\u00F3w Lubelski","lat":"50.70695","lng":"22.41039"},{"Id":368,"country":"PL","name":"Jan\u00F3w Podlaski","lat":"52.19398","lng":"23.21218"},{"Id":369,"country":"PL","name":"Jarcz\u00F3w","lat":"50.42438","lng":"23.58576"},{"Id":370,"country":"PL","name":"Jarocin","lat":"50.56459","lng":"22.32121"},{"Id":371,"country":"PL","name":"Jaros\u0142aw","lat":"50.01623","lng":"22.67776"},{"Id":372,"country":"PL","name":"Okocim","lat":"49.9489","lng":"20.6016"},{"Id":373,"country":"PL","name":"Jasie\u0144","lat":"49.96988","lng":"20.5719"},{"Id":374,"country":"PL","name":"Targowisko","lat":"49.98473","lng":"20.29346"},{"Id":375,"country":"PL","name":"Tarczyn","lat":"51.98197","lng":"20.83394"},{"Id":376,"country":"PL","name":"Szaflary","lat":"49.42655","lng":"20.02713"},{"Id":377,"country":"PL","name":"Szar\u00F3w","lat":"49.99505","lng":"20.2696"},{"Id":378,"country":"PL","name":"Szastarka","lat":"50.85527","lng":"22.31971"},{"Id":379,"country":"PL","name":"\u017Begocina","lat":"49.81395","lng":"20.41964"},{"Id":380,"country":"PL","name":"Nisko","lat":"50.51987","lng":"22.13968"},{"Id":381,"country":"PL","name":"Niepor\u0119t","lat":"52.43152","lng":"21.03212"},{"Id":382,"country":"PL","name":"Mszczon\u00F3w","lat":"51.97415","lng":"20.52083"},{"Id":383,"country":"PL","name":"Muszyna","lat":"49.35661","lng":"20.89718"},{"Id":384,"country":"PL","name":"Mysiad\u0142o","lat":"52.10216","lng":"21.01856"},{"Id":385,"country":"PL","name":"Myszyniec","lat":"53.38055","lng":"21.34961"},{"Id":386,"country":"PL","name":"Nadarzyn","lat":"52.09438","lng":"20.80776"},{"Id":387,"country":"PL","name":"Nag\u0142owice","lat":"50.67835","lng":"20.10661"},{"Id":388,"country":"PL","name":"Niwiska","lat":"50.22492","lng":"21.63036"},{"Id":389,"country":"PL","name":"Na\u0142\u0119cz\u00F3w","lat":"51.28581","lng":"22.21539"},{"Id":390,"country":"PL","name":"Narol","lat":"50.34925","lng":"23.32679"},{"Id":391,"country":"PL","name":"Naruszewo","lat":"52.52687","lng":"20.35157"},{"Id":392,"country":"PL","name":"Nasielsk","lat":"52.58887","lng":"20.80553"},{"Id":393,"country":"PL","name":"Nawojowa","lat":"49.56686","lng":"20.73927"},{"Id":394,"country":"PL","name":"Nidzica","lat":"53.36052","lng":"20.42749"},{"Id":395,"country":"PL","name":"Mszana Dolna","lat":"49.67432","lng":"20.07992"},{"Id":396,"country":"PL","name":"Niebieszczany","lat":"49.50348","lng":"22.15651"},{"Id":397,"country":"PL","name":"Niebor\u00F3w","lat":"52.07771","lng":"20.06902"},{"Id":398,"country":"PL","name":"Narew","lat":"52.91418","lng":"23.51984"},{"Id":399,"country":"PL","name":"Niebylec","lat":"49.85669","lng":"21.90348"},{"Id":400,"country":"PL","name":"Nowa D\u0119ba","lat":"50.42974","lng":"21.75078"},{"Id":401,"country":"PL","name":"Odrzyw\u00F3\u0142","lat":"51.51953","lng":"20.55559"},{"Id":402,"country":"PL","name":"Nowogr\u00F3d","lat":"53.22698","lng":"21.8821"},{"Id":403,"country":"PL","name":"Nowosielce","lat":"50.05747","lng":"22.41056"},{"Id":404,"country":"PL","name":"Nowosielce-Gniewosz","lat":"49.56842","lng":"22.06947"},{"Id":405,"country":"PL","name":"Nowy Dw\u00F3r Mazowiecki","lat":"52.43022","lng":"20.71652"},{"Id":406,"country":"PL","name":"Nowy Korczyn","lat":"50.30124","lng":"20.80759"},{"Id":407,"country":"PL","name":"Nowy S\u0105cz","lat":"49.62177","lng":"20.69705"},{"Id":408,"country":"PL","name":"Nowy Targ","lat":"49.47783","lng":"20.03228"},{"Id":409,"country":"PL","name":"Nowy Wi\u015Bnicz","lat":"49.91465","lng":"20.46109"},{"Id":410,"country":"PL","name":"Ojrze\u0144","lat":"52.7657","lng":"20.54315"},{"Id":411,"country":"PL","name":"Nowy \u017Bmigr\u00F3d","lat":"49.60353","lng":"21.52376"},{"Id":412,"country":"PL","name":"Nur","lat":"52.66826","lng":"22.32207"},{"Id":413,"country":"PL","name":"Nurzec-Stacja","lat":"52.46249","lng":"23.08571"},{"Id":414,"country":"PL","name":"Obraz\u00F3w","lat":"50.69276","lng":"21.65045"},{"Id":415,"country":"PL","name":"Obryte","lat":"52.71633","lng":"21.24945"},{"Id":416,"country":"PL","name":"Obsza","lat":"50.3152","lng":"22.95688"},{"Id":417,"country":"PL","name":"Ochota","lat":"52.22096","lng":"20.98526"},{"Id":418,"country":"PL","name":"Ochotnica Dolna","lat":"49.52682","lng":"20.34265"},{"Id":419,"country":"PL","name":"Odrzyko\u0144","lat":"49.74057","lng":"21.74074"},{"Id":420,"country":"PL","name":"Nozdrzec","lat":"49.77323","lng":"22.19865"},{"Id":421,"country":"PL","name":"Nowodw\u00F3r","lat":"51.63901","lng":"22.10183"},{"Id":422,"country":"PL","name":"Niechobrz","lat":"49.99472","lng":"21.87824"},{"Id":423,"country":"PL","name":"Niedrzwica Du\u017Ca","lat":"51.11462","lng":"22.38911"},{"Id":424,"country":"PL","name":"Krzesz\u00F3w","lat":"50.40381","lng":"22.34241"},{"Id":425,"country":"PL","name":"Krzynow\u0142oga Ma\u0142a","lat":"53.15773","lng":"20.78579"},{"Id":426,"country":"PL","name":"Krzywcza","lat":"49.79894","lng":"22.54549"},{"Id":427,"country":"PL","name":"Krzywda","lat":"51.79519","lng":"22.19994"},{"Id":428,"country":"PL","name":"Ksi\u0119\u017Comierz","lat":"50.90855","lng":"21.98965"},{"Id":429,"country":"PL","name":"Ksi\u0119\u017Cpol","lat":"50.42323","lng":"22.73526"},{"Id":430,"country":"PL","name":"Kuczbork-Osada","lat":"53.08619","lng":"20.04782"},{"Id":431,"country":"PL","name":"Kun\u00F3w","lat":"50.96156","lng":"21.28058"},{"Id":432,"country":"PL","name":"Krzemienica","lat":"50.0621","lng":"22.18054"},{"Id":433,"country":"PL","name":"Kur\u00F3w","lat":"51.38941","lng":"22.18637"},{"Id":434,"country":"PL","name":"Ku\u017Anica","lat":"53.51094","lng":"23.64953"},{"Id":435,"country":"PL","name":"\u0141abowa","lat":"49.52766","lng":"20.85497"},{"Id":436,"country":"PL","name":"\u0141abunie","lat":"50.65517","lng":"23.3662"},{"Id":437,"country":"PL","name":"\u0141\u0105cko","lat":"49.55757","lng":"20.43586"},{"Id":438,"country":"PL","name":"\u0141\u0105czna","lat":"51.00231","lng":"20.79712"},{"Id":439,"country":"PL","name":"\u0141ag\u00F3w","lat":"50.77517","lng":"21.08431"},{"Id":440,"country":"PL","name":"\u0141ajski","lat":"52.42873","lng":"20.94946"},{"Id":441,"country":"PL","name":"Krempna","lat":"49.51128","lng":"21.50042"},{"Id":442,"country":"PL","name":"Kury\u0142\u00F3wka","lat":"50.29976","lng":"22.46601"},{"Id":443,"country":"PL","name":"Niedomice","lat":"50.10737","lng":"20.89548"},{"Id":444,"country":"PL","name":"Krzeczowice","lat":"49.9892","lng":"22.46378"},{"Id":445,"country":"PL","name":"Krynki","lat":"53.26444","lng":"23.77304"},{"Id":446,"country":"PL","name":"Niedzica","lat":"49.41008","lng":"20.30273"},{"Id":447,"country":"PL","name":"Nied\u017Awiada","lat":"49.98937","lng":"21.52162"},{"Id":448,"country":"PL","name":"Nied\u017Awiada","lat":"51.54409","lng":"22.6914"},{"Id":449,"country":"PL","name":"Nied\u017Awied\u017A","lat":"49.621","lng":"20.07794"},{"Id":450,"country":"PL","name":"Nielisz","lat":"50.80067","lng":"23.04451"},{"Id":451,"country":"PL","name":"Niemce","lat":"51.36155","lng":"22.63939"},{"Id":452,"country":"PL","name":"Nienadowa","lat":"49.82901","lng":"22.42704"},{"Id":453,"country":"PL","name":"Niepo\u0142omice","lat":"50.04066","lng":"20.22257"},{"Id":454,"country":"PL","name":"Krzecz\u00F3w","lat":"49.98876","lng":"20.48779"},{"Id":455,"country":"PL","name":"Niebocko","lat":"49.67774","lng":"22.10484"},{"Id":456,"country":"PL","name":"\u0141u\u017Cna","lat":"49.71288","lng":"21.04637"},{"Id":457,"country":"PL","name":"Lutory\u017C","lat":"49.96712","lng":"21.9124"},{"Id":458,"country":"PL","name":"Kro\u015Bcienko Wy\u017Cne","lat":"49.67946","lng":"21.82898"},{"Id":459,"country":"PL","name":"Kro\u015Bnica","lat":"49.44787","lng":"20.33956"},{"Id":460,"country":"PL","name":"Krosno","lat":"49.68866","lng":"21.77058"},{"Id":461,"country":"PL","name":"Kruklanki","lat":"54.08855","lng":"21.92227"},{"Id":462,"country":"PL","name":"Krynica-Zdr\u00F3j","lat":"49.42225","lng":"20.95942"},{"Id":463,"country":"PL","name":"Krynice","lat":"50.5876","lng":"23.38157"},{"Id":464,"country":"PL","name":"Oksa","lat":"50.72874","lng":"20.10086"},{"Id":465,"country":"PL","name":"Krasocin","lat":"50.88874","lng":"20.11863"},{"Id":466,"country":"PL","name":"Nowe Sio\u0142o","lat":"50.23194","lng":"23.15884"},{"Id":467,"country":"PL","name":"Nowe Miasto","lat":"52.65691","lng":"20.62838"},{"Id":468,"country":"PL","name":"Milan\u00F3w","lat":"51.70374","lng":"22.8883"},{"Id":469,"country":"PL","name":"Milan\u00F3wek","lat":"52.11879","lng":"20.67155"},{"Id":470,"country":"PL","name":"Milejczyce","lat":"52.51967","lng":"23.13206"},{"Id":471,"country":"PL","name":"Milej\u00F3w","lat":"51.23226","lng":"22.92443"},{"Id":472,"country":"PL","name":"Mi\u0144sk Mazowiecki","lat":"52.17935","lng":"21.57251"},{"Id":473,"country":"PL","name":"Mircze","lat":"50.65164","lng":"23.89604"},{"Id":474,"country":"PL","name":"Mirocin","lat":"50.04237","lng":"22.55596"},{"Id":475,"country":"PL","name":"Mir\u00F3w","lat":"51.1972","lng":"21.0329"},{"Id":476,"country":"PL","name":"Mi\u0142akowo","lat":"54.00923","lng":"20.07125"},{"Id":477,"country":"PL","name":"Mirzec","lat":"51.13466","lng":"21.0571"},{"Id":478,"country":"PL","name":"M\u0142odzieszyn","lat":"52.29945","lng":"20.20017"},{"Id":479,"country":"PL","name":"M\u0142ynarze","lat":"52.95417","lng":"21.41141"},{"Id":480,"country":"PL","name":"Mni\u00F3w","lat":"51.01224","lng":"20.48427"},{"Id":481,"country":"PL","name":"Mniszk\u00F3w","lat":"51.37017","lng":"20.03915"},{"Id":482,"country":"PL","name":"Modliborzyce","lat":"50.75416","lng":"22.32945"},{"Id":483,"country":"PL","name":"Mogielnica","lat":"51.69432","lng":"20.72227"},{"Id":484,"country":"PL","name":"Mokobody","lat":"52.26523","lng":"22.11182"},{"Id":485,"country":"PL","name":"Mokot\u00F3w","lat":"52.1934","lng":"21.03487"},{"Id":486,"country":"PL","name":"M\u0142awa","lat":"53.11278","lng":"20.3841"},{"Id":487,"country":"PL","name":"Mo\u0144ki","lat":"53.40496","lng":"22.79791"},{"Id":488,"country":"PL","name":"Miko\u0142ajki","lat":"53.80288","lng":"21.57011"},{"Id":489,"country":"PL","name":"Mielec","lat":"50.28709","lng":"21.4239"},{"Id":490,"country":"PL","name":"G\u0142uch\u00F3w","lat":"51.77947","lng":"20.07666"},{"Id":491,"country":"PL","name":"Gnojno","lat":"50.60263","lng":"20.84913"},{"Id":492,"country":"PL","name":"Godzian\u00F3w","lat":"51.89694","lng":"20.03589"},{"Id":493,"country":"PL","name":"Godzisz\u00F3w","lat":"50.74889","lng":"22.49794"},{"Id":494,"country":"PL","name":"Golcowa","lat":"49.77162","lng":"22.02501"},{"Id":495,"country":"PL","name":"Go\u0142dap","lat":"54.30631","lng":"22.30362"},{"Id":496,"country":"PL","name":"Go\u0142ymin-O\u015Brodek","lat":"52.808","lng":"20.87325"},{"Id":497,"country":"PL","name":"Goniadz","lat":"53.48953","lng":"22.73578"},{"Id":498,"country":"PL","name":"Mi\u0119tne","lat":"51.92135","lng":"21.57457"},{"Id":499,"country":"PL","name":"Goraj","lat":"50.72184","lng":"22.66651"},{"Id":500,"country":"PL","name":"G\u00F3rki","lat":"49.64385","lng":"22.04304"},{"Id":501,"country":"PL","name":"Gorlice","lat":"49.65563","lng":"21.16035"},{"Id":502,"country":"PL","name":"Gorliczyna","lat":"50.09217","lng":"22.48764"},{"Id":503,"country":"PL","name":"G\u00F3rno","lat":"50.28243","lng":"22.145"},{"Id":504,"country":"PL","name":"Gnojnik","lat":"49.89397","lng":"20.60863"},{"Id":505,"country":"PL","name":"Konstantyn\u00F3w","lat":"52.20746","lng":"23.0853"},{"Id":506,"country":"PL","name":"Koprzywnica","lat":"50.5934","lng":"21.5838"},{"Id":507,"country":"PL","name":"Korczew","lat":"52.35327","lng":"22.61338"},{"Id":508,"country":"PL","name":"G\u00F3ra Kalwaria","lat":"51.97653","lng":"21.21537"},{"Id":509,"country":"PL","name":"Nowe Miasto nad Pilic\u0105","lat":"51.61812","lng":"20.57619"},{"Id":510,"country":"PL","name":"Morawica","lat":"50.74678","lng":"20.61756"},{"Id":511,"country":"PL","name":"Moszczenica","lat":"49.73668","lng":"21.09238"},{"Id":512,"country":"PL","name":"Me\u0142giew","lat":"51.22519","lng":"22.78414"},{"Id":513,"country":"PL","name":"Mi\u0105czyn","lat":"50.73825","lng":"23.5013"},{"Id":514,"country":"PL","name":"Miastk\u00F3w Ko\u015Bcielny","lat":"51.88407","lng":"21.82528"},{"Id":515,"country":"PL","name":"Micha\u0142\u00F3w","lat":"50.49541","lng":"20.46178"},{"Id":516,"country":"PL","name":"Micha\u0142\u00F3w","lat":"50.54709","lng":"23.60361"},{"Id":517,"country":"PL","name":"Micha\u0142\u00F3w","lat":"50.73727","lng":"23.02297"},{"Id":518,"country":"PL","name":"Micha\u0142\u00F3w-Regin\u00F3w","lat":"52.41711","lng":"20.96595"},{"Id":519,"country":"PL","name":"Micha\u0142owice","lat":"52.17435","lng":"20.88089"},{"Id":520,"country":"PL","name":"Medyka","lat":"49.80526","lng":"22.92229"},{"Id":521,"country":"PL","name":"Micha\u0142owo","lat":"53.03492","lng":"23.60996"},{"Id":522,"country":"PL","name":"Miech\u00F3w","lat":"50.35648","lng":"20.02788"},{"Id":523,"country":"PL","name":"Maszkienice","lat":"49.9892","lng":"20.68657"},{"Id":524,"country":"PL","name":"\u0141yse","lat":"53.36443","lng":"21.56487"},{"Id":525,"country":"PL","name":"Mrozy","lat":"52.16609","lng":"21.80263"},{"Id":526,"country":"PL","name":"Mszana G\u00F3rna","lat":"49.66202","lng":"20.09734"},{"Id":527,"country":"PL","name":"Nowa Sarzyna","lat":"50.32086","lng":"22.34456"},{"Id":528,"country":"PL","name":"Nowa S\u0142upia","lat":"50.86432","lng":"21.09049"},{"Id":529,"country":"PL","name":"Nowe Brzesko","lat":"50.13222","lng":"20.37663"},{"Id":530,"country":"PL","name":"Mich\u00F3w","lat":"51.52573","lng":"22.31435"},{"Id":531,"country":"PL","name":"Mordy","lat":"52.2116","lng":"22.51725"},{"Id":532,"country":"PL","name":"M\u0119drzech\u00F3w","lat":"50.28221","lng":"20.94749"},{"Id":533,"country":"PL","name":"Mrozy","lat":"52.01975","lng":"20.36702"},{"Id":534,"country":"PL","name":"Mr\u0105gowo","lat":"53.86437","lng":"21.30507"},{"Id":535,"country":"PL","name":"Miejsce Piastowe","lat":"49.6344","lng":"21.78735"},{"Id":536,"country":"PL","name":"Mi\u0119dzyrzec Podlaski","lat":"51.9864","lng":"22.78248"},{"Id":537,"country":"PL","name":"Miedzna","lat":"52.46778","lng":"22.08947"},{"Id":538,"country":"PL","name":"Miedziana G\u00F3ra","lat":"50.9368","lng":"20.55096"},{"Id":539,"country":"PL","name":"Jeziorzany","lat":"51.60245","lng":"22.27667"},{"Id":540,"country":"PL","name":"Maciejowice","lat":"51.69222","lng":"21.55342"},{"Id":541,"country":"PL","name":"Majdan Kr\u00F3lewski","lat":"50.37935","lng":"21.74615"},{"Id":542,"country":"PL","name":"Mas\u0142\u00F3w","lat":"50.90065","lng":"20.72322"},{"Id":543,"country":"PL","name":"Mak\u00F3w","lat":"51.94696","lng":"20.05211"},{"Id":544,"country":"PL","name":"Ma\u0142kinia G\u00F3rna","lat":"52.6922","lng":"22.02836"},{"Id":545,"country":"PL","name":"Ma\u0142ogoszcz","lat":"50.81214","lng":"20.26407"},{"Id":546,"country":"PL","name":"Ma\u0142y P\u0142ock","lat":"53.30385","lng":"22.02836"},{"Id":547,"country":"PL","name":"Manasterz","lat":"49.9352","lng":"22.34602"},{"Id":548,"country":"PL","name":"Maniowy","lat":"49.45976","lng":"20.26454"},{"Id":549,"country":"PL","name":"Marki","lat":"52.32065","lng":"21.10474"},{"Id":550,"country":"PL","name":"Markowa","lat":"50.02633","lng":"22.3316"},{"Id":551,"country":"PL","name":"Markusz\u00F3w","lat":"51.37457","lng":"22.25804"},{"Id":552,"country":"PL","name":"Mak\u00F3w Mazowiecki","lat":"52.86493","lng":"21.10053"},{"Id":553,"country":"PL","name":"Ga\u0107","lat":"50.02693","lng":"22.35898"},{"Id":554,"country":"PL","name":"Krasnystaw","lat":"50.98464","lng":"23.1742"},{"Id":555,"country":"PL","name":"Korczyna","lat":"49.71555","lng":"21.80941"},{"Id":556,"country":"PL","name":"Izbica Kujawska","lat":"52.42073","lng":"18.7627"},{"Id":557,"country":"PL","name":"Izbicko","lat":"50.57163","lng":"18.15585"},{"Id":558,"country":"PL","name":"Izdebnik","lat":"49.87218","lng":"19.76801"},{"Id":559,"country":"PL","name":"Jab\u0142onka","lat":"49.47968","lng":"19.6937"},{"Id":560,"country":"PL","name":"Jab\u0142onna","lat":"52.20598","lng":"16.20741"},{"Id":561,"country":"PL","name":"Jab\u0142onowo Pomorskie","lat":"53.39137","lng":"19.15509"},{"Id":562,"country":"PL","name":"Janikowo","lat":"52.75328","lng":"18.11328"},{"Id":563,"country":"PL","name":"Jankowice","lat":"50.0009","lng":"18.98901"},{"Id":564,"country":"PL","name":"Istebna","lat":"49.56319","lng":"18.90567"},{"Id":565,"country":"PL","name":"Jankowice Rybnickie","lat":"50.04479","lng":"18.54707"},{"Id":566,"country":"PL","name":"Janowice","lat":"49.88496","lng":"19.09376"},{"Id":567,"country":"PL","name":"Grzechynia","lat":"49.7136","lng":"19.64561"},{"Id":568,"country":"PL","name":"Janowice Wielkie","lat":"50.87569","lng":"15.92322"},{"Id":569,"country":"PL","name":"Gryf\u00F3w \u015Al\u0105ski","lat":"51.03081","lng":"15.42017"},{"Id":570,"country":"PL","name":"Gryfice","lat":"53.9165","lng":"15.20027"},{"Id":571,"country":"PL","name":"Gorzyce Wielkie","lat":"51.63725","lng":"17.72953"},{"Id":572,"country":"PL","name":"Gorzyczki","lat":"49.94912","lng":"18.4033"},{"Id":573,"country":"PL","name":"Go\u015Bcicino","lat":"54.60459","lng":"18.15491"},{"Id":574,"country":"PL","name":"Jank\u00F3w Przygodzki","lat":"51.59808","lng":"17.78824"},{"Id":575,"country":"PL","name":"Go\u015Bcino","lat":"54.05123","lng":"15.65256"},{"Id":576,"country":"PL","name":"Inwa\u0142d","lat":"49.86355","lng":"19.39276"},{"Id":577,"country":"PL","name":"Inowroc\u0142aw","lat":"52.79886","lng":"18.26387"},{"Id":578,"country":"PL","name":"Lipnik","lat":"49.78902","lng":"20.08455"},{"Id":579,"country":"PL","name":"Lipnik","lat":"50.72977","lng":"21.49389"},{"Id":580,"country":"PL","name":"Lesko","lat":"49.4701","lng":"22.33042"},{"Id":581,"country":"PL","name":"Lud\u017Amierz","lat":"49.46656","lng":"19.9825"},{"Id":582,"country":"PL","name":"Lubsza","lat":"50.91591","lng":"17.52173"},{"Id":583,"country":"PL","name":"Ludwikowice K\u0142odzkie","lat":"50.62464","lng":"16.46052"},{"Id":584,"country":"PL","name":"Grzegorzew","lat":"52.20177","lng":"18.73409"},{"Id":585,"country":"PL","name":"Grzmi\u0105ca","lat":"53.83734","lng":"16.43512"},{"Id":586,"country":"PL","name":"I\u0144sko","lat":"53.43613","lng":"15.5502"},{"Id":587,"country":"PL","name":"Gubin","lat":"51.94956","lng":"14.72837"},{"Id":588,"country":"PL","name":"Ha\u017Clach","lat":"49.80714","lng":"18.65178"},{"Id":589,"country":"PL","name":"Hel","lat":"54.60814","lng":"18.8013"},{"Id":590,"country":"PL","name":"Henryk\u00F3w","lat":"50.65327","lng":"17.01027"},{"Id":591,"country":"PL","name":"Herby","lat":"50.75318","lng":"18.88756"},{"Id":592,"country":"PL","name":"Huta Stara B","lat":"50.73792","lng":"19.13295"},{"Id":593,"country":"PL","name":"I\u0142awa","lat":"53.59601","lng":"19.56849"},{"Id":594,"country":"PL","name":"I\u0142owa","lat":"51.5006","lng":"15.1998"},{"Id":595,"country":"PL","name":"Imielin","lat":"50.14534","lng":"19.18599"},{"Id":596,"country":"PL","name":"Harbutowice","lat":"49.81235","lng":"19.78045"},{"Id":597,"country":"PL","name":"Lipnica Wielka","lat":"49.70489","lng":"20.86844"},{"Id":598,"country":"PL","name":"Gostycyn","lat":"53.49014","lng":"17.80978"},{"Id":599,"country":"PL","name":"Gosty\u0144","lat":"51.88247","lng":"17.01225"},{"Id":600,"country":"PL","name":"Januszkowice","lat":"50.39189","lng":"18.1368"},{"Id":601,"country":"PL","name":"Jaraczewo","lat":"51.96854","lng":"17.29707"},{"Id":602,"country":"PL","name":"Juszczyn","lat":"49.6929","lng":"19.69128"},{"Id":603,"country":"PL","name":"Juszczyna","lat":"49.62984","lng":"19.22032"},{"Id":604,"country":"PL","name":"Jutrosin","lat":"51.65009","lng":"17.16957"},{"Id":605,"country":"PL","name":"Wielki Kack","lat":"54.46754","lng":"18.4881"},{"Id":606,"country":"PL","name":"Kaczory","lat":"53.10348","lng":"16.88169"},{"Id":607,"country":"PL","name":"Kaczyce","lat":"49.82752","lng":"18.59161"},{"Id":608,"country":"PL","name":"Janowiec Wielkopolski","lat":"52.75583","lng":"17.48981"},{"Id":609,"country":"PL","name":"Kalej","lat":"50.83662","lng":"18.98429"},{"Id":610,"country":"PL","name":"Kaliska","lat":"53.90535","lng":"18.21885"},{"Id":611,"country":"PL","name":"Kalisz","lat":"51.76109","lng":"18.09102"},{"Id":612,"country":"PL","name":"Kalisz Pomorski","lat":"53.29908","lng":"15.90631"},{"Id":613,"country":"PL","name":"Kalwaria Zebrzydowska","lat":"49.86759","lng":"19.6772"},{"Id":614,"country":"PL","name":"Kamesznica","lat":"49.56469","lng":"19.0212"},{"Id":615,"country":"PL","name":"Kamie\u0144","lat":"50.01215","lng":"19.58536"},{"Id":616,"country":"PL","name":"Kamienica","lat":"50.45007","lng":"16.95396"},{"Id":617,"country":"PL","name":"Kamienica Polska","lat":"50.6709","lng":"19.12265"},{"Id":618,"country":"PL","name":"Kalety","lat":"50.5627","lng":"18.8926"},{"Id":619,"country":"PL","name":"Gosty\u0144","lat":"50.10528","lng":"18.88241"},{"Id":620,"country":"PL","name":"Gryfino","lat":"53.25243","lng":"14.48831"},{"Id":621,"country":"PL","name":"Grudzi\u0105dz","lat":"53.48411","lng":"18.75366"},{"Id":622,"country":"PL","name":"Gostynin","lat":"52.42938","lng":"19.46194"},{"Id":623,"country":"PL","name":"Goszczan\u00F3w","lat":"51.79163","lng":"18.5057"},{"Id":624,"country":"PL","name":"Gozdnica","lat":"51.4363","lng":"15.09856"},{"Id":625,"country":"PL","name":"Gozdowo","lat":"52.72455","lng":"19.68501"},{"Id":626,"country":"PL","name":"Grabica","lat":"51.47989","lng":"19.53137"},{"Id":627,"country":"PL","name":"Grab\u00F3w","lat":"52.12717","lng":"19.00257"},{"Id":628,"country":"PL","name":"Grab\u00F3w nad Prosn\u0105","lat":"51.50596","lng":"18.11929"},{"Id":629,"country":"PL","name":"Grabowo Ko\u015Bcierskie","lat":"54.16816","lng":"18.14692"},{"Id":630,"country":"PL","name":"Gruta","lat":"53.45315","lng":"18.957"},{"Id":631,"country":"PL","name":"Granowo","lat":"52.22244","lng":"16.52859"},{"Id":632,"country":"PL","name":"Grodk\u00F3w","lat":"50.69836","lng":"17.38449"},{"Id":633,"country":"PL","name":"Grodziec","lat":"52.03855","lng":"18.05972"},{"Id":634,"country":"PL","name":"Grodzisk Wielkopolski","lat":"52.22762","lng":"16.36534"},{"Id":635,"country":"PL","name":"Grojec","lat":"49.98147","lng":"19.23792"},{"Id":636,"country":"PL","name":"Grojec","lat":"50.08975","lng":"19.55704"},{"Id":637,"country":"PL","name":"Gromadka","lat":"51.36063","lng":"15.76452"},{"Id":638,"country":"PL","name":"Gronowo Elbl\u0105skie","lat":"54.08588","lng":"19.30598"},{"Id":639,"country":"PL","name":"Gronowo G\u00F3rne","lat":"54.13863","lng":"19.45988"},{"Id":640,"country":"PL","name":"Gr\u0119bocice","lat":"51.59909","lng":"16.16741"},{"Id":641,"country":"PL","name":"Krasnosielc","lat":"53.03378","lng":"21.15735"},{"Id":642,"country":"PL","name":"Lipnica","lat":"50.28939","lng":"21.88811"},{"Id":643,"country":"PL","name":"Limanowa","lat":"49.70594","lng":"20.42204"},{"Id":644,"country":"PL","name":"Krasne","lat":"52.92401","lng":"20.96732"},{"Id":645,"country":"PL","name":"Kra\u015Bniczyn","lat":"50.93171","lng":"23.34929"},{"Id":646,"country":"PL","name":"Kra\u015Bnik","lat":"50.9236","lng":"22.22706"},{"Id":647,"country":"PL","name":"Krasnobr\u00F3d","lat":"50.54551","lng":"23.21308"},{"Id":648,"country":"PL","name":"Krasnopol","lat":"54.11613","lng":"23.20476"},{"Id":649,"country":"PL","name":"Kowiesy","lat":"51.88942","lng":"20.41929"},{"Id":650,"country":"PL","name":"Lutowiska","lat":"49.25318","lng":"22.69252"},{"Id":651,"country":"PL","name":"\u0141apan\u00F3w","lat":"49.86538","lng":"20.29149"},{"Id":652,"country":"PL","name":"Krasne","lat":"50.05626","lng":"22.08638"},{"Id":653,"country":"PL","name":"\u0141apsze Ni\u017Cne","lat":"49.39807","lng":"20.24343"},{"Id":654,"country":"PL","name":"Liw","lat":"52.37515","lng":"21.96768"},{"Id":655,"country":"PL","name":"\u0141och\u00F3w","lat":"52.53076","lng":"21.68158"},{"Id":656,"country":"PL","name":"\u0141omazy","lat":"51.90435","lng":"23.17656"},{"Id":657,"country":"PL","name":"\u0141omianki","lat":"52.33413","lng":"20.88602"},{"Id":658,"country":"PL","name":"\u0141om\u017Ca","lat":"53.17806","lng":"22.05935"},{"Id":659,"country":"PL","name":"\u0141oni\u00F3w","lat":"50.56443","lng":"21.52599"},{"Id":660,"country":"PL","name":"\u0141opiennik G\u00F3rny","lat":"51.0408","lng":"23.01833"},{"Id":661,"country":"PL","name":"\u0141opuszka Wielka","lat":"49.93454","lng":"22.39305"},{"Id":662,"country":"PL","name":"Lisia G\u00F3ra","lat":"50.08039","lng":"21.04397"},{"Id":663,"country":"PL","name":"\u0141opuszna","lat":"49.47281","lng":"20.13021"},{"Id":664,"country":"PL","name":"Krasiczyn","lat":"49.77644","lng":"22.65252"},{"Id":665,"country":"PL","name":"Kraczkowa","lat":"50.03796","lng":"22.16801"},{"Id":666,"country":"PL","name":"Stara Kornica","lat":"52.18183","lng":"22.93752"},{"Id":667,"country":"PL","name":"Korsze","lat":"54.17002","lng":"21.13915"},{"Id":668,"country":"PL","name":"Kortowo","lat":"53.75731","lng":"20.4562"},{"Id":669,"country":"PL","name":"Korytnica","lat":"52.41441","lng":"21.84949"},{"Id":670,"country":"PL","name":"Korzenna","lat":"49.68635","lng":"20.84355"},{"Id":671,"country":"PL","name":"Kosina","lat":"50.07213","lng":"22.32903"},{"Id":672,"country":"PL","name":"Kos\u00F3w Lacki","lat":"52.59541","lng":"22.14707"},{"Id":673,"country":"PL","name":"Kostom\u0142oty Drugie","lat":"50.92684","lng":"20.56529"},{"Id":674,"country":"PL","name":"Kramarz\u00F3wka","lat":"49.86034","lng":"22.50137"},{"Id":675,"country":"PL","name":"Kostom\u0142oty Pierwsze","lat":"50.92322","lng":"20.5949"},{"Id":676,"country":"PL","name":"Kotu\u0144","lat":"52.17643","lng":"22.06819"},{"Id":677,"country":"PL","name":"Kowala","lat":"51.32503","lng":"21.06972"},{"Id":678,"country":"PL","name":"\u0141a\u0144cut","lat":"50.06871","lng":"22.22912"},{"Id":679,"country":"PL","name":"Kowale Oleckie","lat":"54.16354","lng":"22.41666"},{"Id":680,"country":"PL","name":"Kozienice","lat":"51.58294","lng":"21.54779"},{"Id":681,"country":"PL","name":"Koz\u0142\u00F3w","lat":"50.48394","lng":"20.02456"},{"Id":682,"country":"PL","name":"Koz\u0142owo","lat":"53.30652","lng":"20.29098"},{"Id":683,"country":"PL","name":"Kozubszczyzna","lat":"51.22323","lng":"22.42747"},{"Id":684,"country":"PL","name":"Koszyce","lat":"49.97226","lng":"20.94166"},{"Id":685,"country":"PL","name":"Nowe Lipiny","lat":"52.35789","lng":"21.27125"},{"Id":686,"country":"PL","name":"\u0141opuszno","lat":"50.94864","lng":"20.25081"},{"Id":687,"country":"PL","name":"\u0141ososina Dolna","lat":"49.74977","lng":"20.63129"},{"Id":688,"country":"PL","name":"Laszki","lat":"50.0202","lng":"22.89997"},{"Id":689,"country":"PL","name":"Latowicz","lat":"52.02636","lng":"21.80829"},{"Id":690,"country":"PL","name":"\u0141aziska","lat":"51.14226","lng":"21.87919"},{"Id":691,"country":"PL","name":"Lecka","lat":"49.8786","lng":"22.01368"},{"Id":692,"country":"PL","name":"\u0141\u0119czna","lat":"51.30121","lng":"22.88135"},{"Id":693,"country":"PL","name":"Legionowo","lat":"52.40149","lng":"20.92664"},{"Id":694,"country":"PL","name":"\u0141\u0119ki","lat":"49.80996","lng":"21.66023"},{"Id":695,"country":"PL","name":"\u0141\u0119ki Dolne","lat":"49.97386","lng":"21.24739"},{"Id":696,"country":"PL","name":"\u0141aszcz\u00F3w","lat":"50.53332","lng":"23.72562"},{"Id":697,"country":"PL","name":"\u0141\u0119ki G\u00F3rne","lat":"49.97386","lng":"21.17426"},{"Id":698,"country":"PL","name":"Lelkowo","lat":"54.32458","lng":"20.2248"},{"Id":699,"country":"PL","name":"Le\u015Bna Podlaska","lat":"52.13317","lng":"23.02786"},{"Id":700,"country":"PL","name":"Le\u015Bnica","lat":"49.40092","lng":"20.06001"},{"Id":701,"country":"PL","name":"Leszno","lat":"52.25799","lng":"20.59121"},{"Id":702,"country":"PL","name":"Lesznowola","lat":"52.09095","lng":"20.93479"},{"Id":703,"country":"PL","name":"\u0141\u0119townia","lat":"50.32481","lng":"22.23401"},{"Id":704,"country":"PL","name":"Le\u017Cajsk","lat":"50.26257","lng":"22.41932"},{"Id":705,"country":"PL","name":"Lidzbark Warmi\u0144ski","lat":"54.12588","lng":"20.57954"},{"Id":706,"country":"PL","name":"\u0141apczyca","lat":"49.95994","lng":"20.38445"},{"Id":707,"country":"PL","name":"\u0141osice","lat":"52.21129","lng":"22.71801"},{"Id":708,"country":"PL","name":"Laskowa","lat":"49.76147","lng":"20.45045"},{"Id":709,"country":"PL","name":"\u0141apy","lat":"52.9911","lng":"22.88422"},{"Id":710,"country":"PL","name":"Lubacz\u00F3w","lat":"50.157","lng":"23.12339"},{"Id":711,"country":"PL","name":"Lubart\u00F3w","lat":"51.46026","lng":"22.60952"},{"Id":712,"country":"PL","name":"Lubenia","lat":"49.93078","lng":"21.92665"},{"Id":713,"country":"PL","name":"Lublin","lat":"51.25","lng":"22.56667"},{"Id":714,"country":"PL","name":"\u0141ubnice","lat":"50.41164","lng":"21.15014"},{"Id":715,"country":"PL","name":"Lubochnia","lat":"51.60794","lng":"20.05391"},{"Id":716,"country":"PL","name":"Lubomierz","lat":"49.60854","lng":"20.20214"},{"Id":717,"country":"PL","name":"Lubomino","lat":"54.06684","lng":"20.23956"},{"Id":718,"country":"PL","name":"\u0141askarzew","lat":"51.78993","lng":"21.59122"},{"Id":719,"country":"PL","name":"Lubycza Kr\u00F3lewska","lat":"50.34102","lng":"23.51941"},{"Id":720,"country":"PL","name":"\u0141uk\u00F3w","lat":"51.929","lng":"22.37956"},{"Id":721,"country":"PL","name":"\u0141ukowa","lat":"50.093","lng":"20.97548"},{"Id":722,"country":"PL","name":"\u0141ukowa","lat":"50.37426","lng":"22.94349"},{"Id":723,"country":"PL","name":"\u0141ukowica","lat":"49.6111","lng":"20.48289"},{"Id":724,"country":"PL","name":"Lipsko","lat":"51.15954","lng":"21.64933"},{"Id":725,"country":"PL","name":"Lipsk","lat":"53.73312","lng":"23.40225"},{"Id":726,"country":"PL","name":"Lipowiec Ko\u015Bcielny","lat":"53.10459","lng":"20.17639"},{"Id":727,"country":"PL","name":"Lipinki","lat":"49.67296","lng":"21.29288"},{"Id":728,"country":"PL","name":"Ludwin","lat":"51.34605","lng":"22.90581"},{"Id":729,"country":"PL","name":"G\u0142uch\u00F3w","lat":"50.08171","lng":"22.27135"},{"Id":730,"country":"PL","name":"G\u0142og\u00F3w Ma\u0142opolski","lat":"50.15122","lng":"21.96287"},{"Id":731,"country":"PL","name":"Glinojeck","lat":"52.81983","lng":"20.29198"},{"Id":732,"country":"PL","name":"Tarnawatka","lat":"50.53154","lng":"23.3959"},{"Id":733,"country":"PL","name":"Tarnobrzeg","lat":"50.57304","lng":"21.67937"},{"Id":734,"country":"PL","name":"Tarnogr\u00F3d","lat":"50.3609","lng":"22.74174"},{"Id":735,"country":"PL","name":"Tarn\u00F3w","lat":"50.01381","lng":"20.98698"},{"Id":736,"country":"PL","name":"Tarnowiec","lat":"49.73108","lng":"21.57663"},{"Id":737,"country":"PL","name":"Tarnowiec","lat":"49.98164","lng":"20.98655"},{"Id":738,"country":"PL","name":"Szyd\u0142\u00F3w","lat":"50.59114","lng":"21.0068"},{"Id":739,"country":"PL","name":"Czerwin","lat":"52.94905","lng":"21.75842"},{"Id":740,"country":"PL","name":"Tar\u0142\u00F3w","lat":"51.0016","lng":"21.71474"},{"Id":741,"country":"PL","name":"Olecko","lat":"54.03374","lng":"22.50704"},{"Id":742,"country":"PL","name":"Jan\u00F3w","lat":"53.46747","lng":"23.23052"},{"Id":743,"country":"PL","name":"Janowice","lat":"49.89154","lng":"20.86081"},{"Id":744,"country":"PL","name":"Janowiec","lat":"51.32359","lng":"21.8894"},{"Id":745,"country":"PL","name":"Jan\u00F3w Lubelski","lat":"50.70695","lng":"22.41039"},{"Id":746,"country":"PL","name":"Jan\u00F3w Podlaski","lat":"52.19398","lng":"23.21218"},{"Id":747,"country":"PL","name":"Jarcz\u00F3w","lat":"50.42438","lng":"23.58576"},{"Id":748,"country":"PL","name":"Jarocin","lat":"50.56459","lng":"22.32121"},{"Id":749,"country":"PL","name":"Jaros\u0142aw","lat":"50.01623","lng":"22.67776"},{"Id":750,"country":"PL","name":"Okocim","lat":"49.9489","lng":"20.6016"},{"Id":751,"country":"PL","name":"Jasie\u0144","lat":"49.96988","lng":"20.5719"},{"Id":752,"country":"PL","name":"Targowisko","lat":"49.98473","lng":"20.29346"},{"Id":753,"country":"PL","name":"Tarczyn","lat":"51.98197","lng":"20.83394"},{"Id":754,"country":"PL","name":"Szaflary","lat":"49.42655","lng":"20.02713"},{"Id":755,"country":"PL","name":"Szar\u00F3w","lat":"49.99505","lng":"20.2696"},{"Id":756,"country":"PL","name":"Szastarka","lat":"50.85527","lng":"22.31971"},{"Id":757,"country":"PL","name":"Szczawnica","lat":"49.42437","lng":"20.48487"},{"Id":758,"country":"PL","name":"Szczebrzeszyn","lat":"50.69499","lng":"22.97954"},{"Id":759,"country":"PL","name":"Szczucin","lat":"50.30957","lng":"21.07444"},{"Id":760,"country":"PL","name":"Szczuczyn","lat":"53.5633","lng":"22.28534"},{"Id":761,"country":"PL","name":"Szczurowa","lat":"50.11915","lng":"20.6361"},{"Id":762,"country":"PL","name":"Targ\u00F3wek","lat":"52.29185","lng":"21.04845"},{"Id":763,"country":"PL","name":"Szczytno","lat":"53.56259","lng":"20.98747"},{"Id":764,"country":"PL","name":"Szepietowo","lat":"52.87032","lng":"22.54392"},{"Id":765,"country":"PL","name":"Szerzyny","lat":"49.80919","lng":"21.2467"},{"Id":766,"country":"PL","name":"Szre\u0144sk","lat":"53.01277","lng":"20.12009"},{"Id":767,"country":"PL","name":"\u015Awilcza","lat":"50.07179","lng":"21.89798"},{"Id":768,"country":"PL","name":"Szumowo","lat":"52.91884","lng":"22.08449"},{"Id":769,"country":"PL","name":"Szyd\u0142owiec","lat":"51.22823","lng":"20.86106"},{"Id":770,"country":"PL","name":"Szyd\u0142owo","lat":"53.08062","lng":"20.45071"},{"Id":771,"country":"PL","name":"Szynwa\u0142d","lat":"49.96767","lng":"21.12293"},{"Id":772,"country":"PL","name":"Szelk\u00F3w","lat":"52.83487","lng":"21.21769"},{"Id":773,"country":"PL","name":"Tcz\u00F3w","lat":"51.326","lng":"21.44677"},{"Id":774,"country":"PL","name":"Jasienica","lat":"52.41415","lng":"21.4115"},{"Id":775,"country":"PL","name":"Jasieniec","lat":"51.82104","lng":"20.94099"},{"Id":776,"country":"PL","name":"Horn\u00F3wek","lat":"52.28638","lng":"20.80793"},{"Id":777,"country":"PL","name":"Horod\u0142o","lat":"50.89459","lng":"24.03723"},{"Id":778,"country":"PL","name":"Horyniec-Zdr\u00F3j","lat":"50.19152","lng":"23.36277"},{"Id":779,"country":"PL","name":"Hrubiesz\u00F3w","lat":"50.80502","lng":"23.89251"},{"Id":780,"country":"PL","name":"Humniska","lat":"49.67507","lng":"22.05368"},{"Id":781,"country":"PL","name":"Hus\u00F3w","lat":"49.97971","lng":"22.28645"},{"Id":782,"country":"PL","name":"Hy\u017Cne","lat":"49.91769","lng":"22.18131"},{"Id":783,"country":"PL","name":"I\u0142\u00F3w","lat":"52.33953","lng":"20.0273"},{"Id":784,"country":"PL","name":"Harasiuki","lat":"50.47515","lng":"22.47288"},{"Id":785,"country":"PL","name":"I\u0142\u017Ca","lat":"51.16313","lng":"21.23979"},{"Id":786,"country":"PL","name":"Inow\u0142\u00F3dz","lat":"51.52717","lng":"20.223"},{"Id":787,"country":"PL","name":"Iwaniska","lat":"50.73146","lng":"21.2806"},{"Id":788,"country":"PL","name":"Iwierzyce","lat":"50.02958","lng":"21.75396"},{"Id":789,"country":"PL","name":"Iwkowa","lat":"49.81716","lng":"20.59018"},{"Id":790,"country":"PL","name":"Iwonicz-Zdr\u00F3j","lat":"49.56319","lng":"21.78992"},{"Id":791,"country":"PL","name":"Izbica","lat":"50.88728","lng":"23.15248"},{"Id":792,"country":"PL","name":"Jab\u0142o\u0144","lat":"51.72501","lng":"23.08743"},{"Id":793,"country":"PL","name":"Jab\u0142onica Polska","lat":"49.69784","lng":"21.89961"},{"Id":794,"country":"PL","name":"Imielno","lat":"50.58569","lng":"20.44813"},{"Id":795,"country":"PL","name":"Jasienica Rosielna","lat":"49.75144","lng":"21.94176"},{"Id":796,"country":"PL","name":"Ha\u0144sk","lat":"51.41286","lng":"23.39942"},{"Id":797,"country":"PL","name":"Jadowniki Mokre","lat":"50.16546","lng":"20.72845"},{"Id":798,"country":"PL","name":"Jasion\u00F3w","lat":"49.65841","lng":"21.97678"},{"Id":799,"country":"PL","name":"Ja\u015Bliska","lat":"49.44229","lng":"21.80795"},{"Id":800,"country":"PL","name":"Jas\u0142o","lat":"49.74506","lng":"21.47252"},{"Id":801,"country":"PL","name":"Jastk\u00F3w","lat":"51.30411","lng":"22.43546"},{"Id":802,"country":"PL","name":"Jastrz\u0105b","lat":"51.24725","lng":"20.94758"},{"Id":803,"country":"PL","name":"Jastrz\u0119bia","lat":"49.79733","lng":"20.88089"},{"Id":804,"country":"PL","name":"Jastrz\u0119bia","lat":"51.49742","lng":"21.23709"},{"Id":805,"country":"PL","name":"Jawornik","lat":"49.8464","lng":"21.89404"},{"Id":806,"country":"PL","name":"Handzl\u00F3wka","lat":"49.99527","lng":"22.22311"},{"Id":807,"country":"PL","name":"Jawornik Polski","lat":"49.89082","lng":"22.28868"},{"Id":808,"country":"PL","name":"Jedli\u0144sk","lat":"51.514","lng":"21.11577"},{"Id":809,"country":"PL","name":"Jedlnia-Letnisko","lat":"51.43074","lng":"21.33536"},{"Id":810,"country":"PL","name":"Jednoro\u017Cec","lat":"53.14116","lng":"21.05161"},{"Id":811,"country":"PL","name":"J\u0119drzej\u00F3w","lat":"50.63945","lng":"20.30454"},{"Id":812,"country":"PL","name":"Jedwabne","lat":"53.28554","lng":"22.30353"},{"Id":813,"country":"PL","name":"Jakubowice Murowane","lat":"51.26992","lng":"22.63415"},{"Id":814,"country":"PL","name":"Jedwabno","lat":"53.5299","lng":"20.72657"},{"Id":815,"country":"PL","name":"Jakub\u00F3w","lat":"52.21965","lng":"21.68032"},{"Id":816,"country":"PL","name":"Jedlicze","lat":"49.71749","lng":"21.64886"},{"Id":817,"country":"PL","name":"Jab\u0142onka","lat":"49.69417","lng":"22.11565"},{"Id":818,"country":"PL","name":"Telatyn","lat":"50.52712","lng":"23.83956"},{"Id":819,"country":"PL","name":"Terespol","lat":"52.0755","lng":"23.61614"},{"Id":820,"country":"PL","name":"Stawiski","lat":"53.37987","lng":"22.15462"},{"Id":821,"country":"PL","name":"Stawiguda","lat":"53.6572","lng":"20.40041"},{"Id":822,"country":"PL","name":"Stasz\u00F3w","lat":"50.56307","lng":"21.16593"},{"Id":823,"country":"PL","name":"Sok\u00F3\u0142ka","lat":"53.40715","lng":"23.50228"},{"Id":824,"country":"PL","name":"Sokolniki","lat":"50.63803","lng":"21.80649"},{"Id":825,"country":"PL","name":"Soko\u0142\u00F3w Ma\u0142opolski","lat":"50.22909","lng":"22.11968"},{"Id":826,"country":"PL","name":"Soko\u0142\u00F3w Podlaski","lat":"52.40677","lng":"22.25307"},{"Id":827,"country":"PL","name":"Soko\u0142y","lat":"52.99314","lng":"22.7005"},{"Id":828,"country":"PL","name":"Sterdy\u0144","lat":"52.58026","lng":"22.29358"},{"Id":829,"country":"PL","name":"Solec Nad Wis\u0142\u0105","lat":"51.13633","lng":"21.76563"},{"Id":830,"country":"PL","name":"Sonina","lat":"50.06089","lng":"22.26551"},{"Id":831,"country":"PL","name":"So\u0144sk","lat":"52.78164","lng":"20.69901"},{"Id":832,"country":"PL","name":"So\u015Bnica","lat":"49.90083","lng":"22.87469"},{"Id":833,"country":"PL","name":"Sosnowica","lat":"51.52065","lng":"23.09215"},{"Id":834,"country":"PL","name":"Sosn\u00F3wka","lat":"51.75084","lng":"23.33814"},{"Id":835,"country":"PL","name":"Spiczyn","lat":"51.34128","lng":"22.75354"},{"Id":836,"country":"PL","name":"\u015Awi\u0119tajno","lat":"53.56692","lng":"21.21546"},{"Id":837,"country":"PL","name":"\u015Ar\u00F3dmie\u015Bcie","lat":"52.22904","lng":"21.01644"},{"Id":838,"country":"PL","name":"Solec-Zdr\u00F3j","lat":"50.36594","lng":"20.88956"},{"Id":839,"country":"PL","name":"Stalowa Wola","lat":"50.58286","lng":"22.05334"},{"Id":840,"country":"PL","name":"\u015Awidnik","lat":"51.21898","lng":"22.69621"},{"Id":841,"country":"PL","name":"Susiec","lat":"50.41973","lng":"23.19626"},{"Id":842,"country":"PL","name":"Straszydle","lat":"49.90038","lng":"21.98124"},{"Id":843,"country":"PL","name":"Strawczyn","lat":"50.94177","lng":"20.42135"},{"Id":844,"country":"PL","name":"Stromiec","lat":"51.647","lng":"21.09229"},{"Id":845,"country":"PL","name":"Strzegowo","lat":"52.89394","lng":"20.28548"},{"Id":846,"country":"PL","name":"Strzy\u017C\u00F3w","lat":"49.87074","lng":"21.79413"},{"Id":847,"country":"PL","name":"Strzy\u017Cowice","lat":"51.0483","lng":"22.44018"},{"Id":848,"country":"PL","name":"Stubno","lat":"49.89806","lng":"22.95602"},{"Id":849,"country":"PL","name":"Stupsk","lat":"53.02258","lng":"20.4368"},{"Id":850,"country":"PL","name":"Suwa\u0142ki","lat":"54.11175","lng":"22.93087"},{"Id":851,"country":"PL","name":"Sucha","lat":"51.61999","lng":"20.94887"},{"Id":852,"country":"PL","name":"Suchowola","lat":"53.57753","lng":"23.10596"},{"Id":853,"country":"PL","name":"Sucho\u017Cebry","lat":"52.25948","lng":"22.25289"},{"Id":854,"country":"PL","name":"Sulej\u00F3wek","lat":"52.25221","lng":"21.26902"},{"Id":855,"country":"PL","name":"Su\u0142kowice","lat":"51.9231","lng":"21.08929"},{"Id":856,"country":"PL","name":"Su\u0142\u00F3w","lat":"50.77099","lng":"22.95593"},{"Id":857,"country":"PL","name":"Su\u0142\u00F3w","lat":"50.90661","lng":"22.36061"},{"Id":858,"country":"PL","name":"Supra\u015Bl","lat":"53.20526","lng":"23.33934"},{"Id":859,"country":"PL","name":"Sura\u017C","lat":"52.94908","lng":"22.95653"},{"Id":860,"country":"PL","name":"Suchedni\u00F3w","lat":"51.04776","lng":"20.82922"},{"Id":861,"country":"PL","name":"Teresin","lat":"52.19887","lng":"20.41672"},{"Id":862,"country":"PL","name":"Stanis\u0142awice","lat":"49.9855","lng":"20.35123"},{"Id":863,"country":"PL","name":"Stanis\u0142aw\u00F3w Pierwszy","lat":"52.37485","lng":"21.05184"},{"Id":864,"country":"PL","name":"Troszyn","lat":"53.03115","lng":"21.73083"},{"Id":865,"country":"PL","name":"Truskaw","lat":"52.30124","lng":"20.78244"},{"Id":866,"country":"PL","name":"Try\u0144cza","lat":"50.16087","lng":"22.55008"},{"Id":867,"country":"PL","name":"Trzciana","lat":"49.84485","lng":"20.37415"},{"Id":868,"country":"PL","name":"Trzciana","lat":"50.0719","lng":"21.8385"},{"Id":869,"country":"PL","name":"Trzciana","lat":"50.30771","lng":"21.33725"},{"Id":870,"country":"PL","name":"Trzcinica","lat":"49.74301","lng":"21.4175"},{"Id":871,"country":"PL","name":"Trzebiesz\u00F3w","lat":"51.99006","lng":"22.55502"},{"Id":872,"country":"PL","name":"Trojan\u00F3w","lat":"51.69225","lng":"21.81112"},{"Id":873,"country":"PL","name":"Trzebownisko","lat":"50.07829","lng":"22.03712"},{"Id":874,"country":"PL","name":"Trzydnik Du\u017Cy","lat":"50.84887","lng":"22.13359"},{"Id":875,"country":"PL","name":"Tuch\u00F3w","lat":"49.89485","lng":"21.05407"},{"Id":876,"country":"PL","name":"Tucz\u0119py","lat":"50.51676","lng":"20.99187"},{"Id":877,"country":"PL","name":"Tuczna","lat":"51.88029","lng":"23.4252"},{"Id":878,"country":"PL","name":"Turobin","lat":"50.82367","lng":"22.74273"},{"Id":879,"country":"PL","name":"Turo\u015B\u0144 Ko\u015Bcielna","lat":"53.01463","lng":"23.05532"},{"Id":880,"country":"PL","name":"Turze Pole","lat":"49.66329","lng":"22.00476"},{"Id":881,"country":"PL","name":"Tyczyn","lat":"49.96384","lng":"22.03398"},{"Id":882,"country":"PL","name":"Trzeme\u015Bnia","lat":"49.82752","lng":"20.02207"},{"Id":883,"country":"PL","name":"Stanis\u0142aw\u00F3w","lat":"52.28937","lng":"21.54848"},{"Id":884,"country":"PL","name":"Trawniki","lat":"51.13633","lng":"22.99816"},{"Id":885,"country":"PL","name":"Tr\u0105bki","lat":"51.94792","lng":"21.59929"},{"Id":886,"country":"PL","name":"St\u0105pork\u00F3w","lat":"51.13762","lng":"20.57173"},{"Id":887,"country":"PL","name":"Starachowice","lat":"51.0374","lng":"21.07126"},{"Id":888,"country":"PL","name":"Stara Wie\u015B","lat":"49.71505","lng":"22.00441"},{"Id":889,"country":"PL","name":"Stare Babice","lat":"52.26028","lng":"20.83403"},{"Id":890,"country":"PL","name":"Stare Juchy","lat":"53.92198","lng":"22.17367"},{"Id":891,"country":"PL","name":"Stare Miasto","lat":"50.28879","lng":"22.42928"},{"Id":892,"country":"PL","name":"Stary S\u0105cz","lat":"49.56364","lng":"20.63496"},{"Id":893,"country":"PL","name":"Stary Wi\u015Bnicz","lat":"49.92548","lng":"20.48641"},{"Id":894,"country":"PL","name":"Trablice","lat":"51.35249","lng":"21.12877"},{"Id":895,"country":"PL","name":"Stary Zamo\u015B\u0107","lat":"50.82004","lng":"23.17154"},{"Id":896,"country":"PL","name":"Tylicz","lat":"49.39598","lng":"21.02368"},{"Id":897,"country":"PL","name":"Swi\u0119tajno","lat":"54.00151","lng":"22.3183"},{"Id":898,"country":"PL","name":"Sypniewo","lat":"53.0058","lng":"21.3073"},{"Id":899,"country":"PL","name":"Tereszpol","lat":"50.58373","lng":"22.8798"},{"Id":900,"country":"PL","name":"T\u0142uszcz","lat":"52.43058","lng":"21.43561"},{"Id":901,"country":"PL","name":"Tomasz\u00F3w Lubelski","lat":"50.44767","lng":"23.41616"},{"Id":902,"country":"PL","name":"Tomasz\u00F3w Mazowiecki","lat":"51.53131","lng":"20.00855"},{"Id":903,"country":"PL","name":"Tr\u0105bki","lat":"49.96226","lng":"20.1424"},{"Id":904,"country":"PL","name":"Srokowo","lat":"54.21416","lng":"21.52282"},{"Id":905,"country":"PL","name":"Jab\u0142onna","lat":"51.08875","lng":"22.59364"},{"Id":906,"country":"PL","name":"Jab\u0142onna","lat":"52.37885","lng":"20.91745"},{"Id":907,"country":"PL","name":"Jab\u0142onna Lacka","lat":"52.47664","lng":"22.44228"},{"Id":908,"country":"PL","name":"D\u0119blin","lat":"51.55912","lng":"21.84829"},{"Id":909,"country":"PL","name":"D\u0119bno","lat":"49.96701","lng":"20.71979"},{"Id":910,"country":"PL","name":"Frydman","lat":"49.44927","lng":"20.22961"},{"Id":911,"country":"PL","name":"D\u0119bno","lat":"50.19811","lng":"22.51837"},{"Id":912,"country":"PL","name":"D\u0119bowa K\u0142oda","lat":"51.59446","lng":"23.0064"},{"Id":913,"country":"PL","name":"D\u0119bowiec","lat":"49.68374","lng":"21.46068"},{"Id":914,"country":"PL","name":"D\u0142ugie","lat":"49.57866","lng":"22.04338"},{"Id":915,"country":"PL","name":"D\u0142ugosiod\u0142o","lat":"52.75998","lng":"21.59183"},{"Id":916,"country":"PL","name":"D\u0119bica","lat":"50.05146","lng":"21.41141"},{"Id":917,"country":"PL","name":"Dobczyce","lat":"49.88109","lng":"20.08936"},{"Id":918,"country":"PL","name":"Dobre","lat":"52.32097","lng":"21.67881"},{"Id":919,"country":"PL","name":"Dobre Miasto","lat":"53.98668","lng":"20.39749"},{"Id":920,"country":"PL","name":"Dobrzyniewo Du\u017Ce","lat":"53.20022","lng":"23.01129"},{"Id":921,"country":"PL","name":"Do\u0142hobycz\u00F3w","lat":"50.58591","lng":"24.03594"},{"Id":922,"country":"PL","name":"Domanice","lat":"52.03739","lng":"22.17642"},{"Id":923,"country":"PL","name":"Domaradz","lat":"49.78675","lng":"21.94571"},{"Id":924,"country":"PL","name":"Domaszowice","lat":"50.87488","lng":"20.68288"},{"Id":925,"country":"PL","name":"D\u0119b\u00F3w","lat":"50.0449","lng":"22.43614"},{"Id":926,"country":"PL","name":"Dobra","lat":"49.71793","lng":"20.25347"},{"Id":927,"country":"PL","name":"Konstancin-Jeziorna","lat":"52.0938","lng":"21.11761"},{"Id":928,"country":"PL","name":"D\u0119be Wielkie","lat":"52.19961","lng":"21.44334"},{"Id":929,"country":"PL","name":"D\u0105br\u00F3wno","lat":"53.43408","lng":"20.03529"},{"Id":930,"country":"PL","name":"E\u0142k","lat":"53.82824","lng":"22.36469"},{"Id":931,"country":"PL","name":"Fajs\u0142awice","lat":"51.09592","lng":"22.96323"},{"Id":932,"country":"PL","name":"Fa\u0142k\u00F3w","lat":"51.13606","lng":"20.1061"},{"Id":933,"country":"PL","name":"Filip\u00F3w","lat":"54.18037","lng":"22.62076"},{"Id":934,"country":"PL","name":"Firlej","lat":"51.55882","lng":"22.50841"},{"Id":935,"country":"PL","name":"Frampol","lat":"50.67159","lng":"22.67061"},{"Id":936,"country":"PL","name":"Fredropol","lat":"49.69578","lng":"22.74625"},{"Id":937,"country":"PL","name":"Drzewica","lat":"51.45085","lng":"20.47701"},{"Id":938,"country":"PL","name":"Daleszyce","lat":"50.80229","lng":"20.80791"},{"Id":939,"country":"PL","name":"Drohiczyn","lat":"52.40011","lng":"22.65853"},{"Id":940,"country":"PL","name":"Dorohusk","lat":"51.15475","lng":"23.80325"},{"Id":941,"country":"PL","name":"Czerwonka","lat":"52.89254","lng":"21.21494"},{"Id":942,"country":"PL","name":"Czerwonka","lat":"53.91627","lng":"20.89685"},{"Id":943,"country":"PL","name":"Czudec","lat":"49.94487","lng":"21.84134"},{"Id":944,"country":"PL","name":"Czy\u017Cew","lat":"52.79768","lng":"22.31237"},{"Id":945,"country":"PL","name":"D\u0105browa Bia\u0142ostocka","lat":"53.65364","lng":"23.34792"},{"Id":946,"country":"PL","name":"D\u0105browa Tarnowska","lat":"50.17462","lng":"20.98633"},{"Id":947,"country":"PL","name":"D\u0105br\u00F3wka","lat":"52.48388","lng":"21.29794"},{"Id":948,"country":"PL","name":"Drel\u00F3w","lat":"51.91219","lng":"22.87165"},{"Id":949,"country":"PL","name":"Dzwola","lat":"50.69657","lng":"22.56729"},{"Id":950,"country":"PL","name":"Frysztak","lat":"49.84164","lng":"21.60942"},{"Id":951,"country":"PL","name":"Gorzyce","lat":"50.12841","lng":"22.57926"},{"Id":952,"country":"PL","name":"Grz\u0119ska","lat":"50.08303","lng":"22.45399"},{"Id":953,"country":"PL","name":"Grzybowa G\u00F3ra","lat":"51.13326","lng":"20.96174"},{"Id":954,"country":"PL","name":"Guz\u00F3w","lat":"52.11626","lng":"20.33672"},{"Id":955,"country":"PL","name":"Gwo\u017Anica G\u00F3rna","lat":"49.82791","lng":"21.99772"},{"Id":956,"country":"PL","name":"G\u00F3rzno","lat":"51.84681","lng":"21.70933"},{"Id":957,"country":"PL","name":"Gorzk\u00F3w","lat":"50.94778","lng":"23.01267"},{"Id":958,"country":"PL","name":"G\u00F3rowo I\u0142aweckie","lat":"54.28559","lng":"20.48886"},{"Id":959,"country":"PL","name":"G\u00F3rno","lat":"50.84774","lng":"20.82501"},{"Id":960,"country":"PL","name":"Gryb\u00F3w","lat":"49.62439","lng":"20.94797"},{"Id":961,"country":"PL","name":"Garb\u00F3w","lat":"51.35517","lng":"22.32937"},{"Id":962,"country":"PL","name":"G\u0105socin","lat":"52.73754","lng":"20.7118"},{"Id":963,"country":"PL","name":"Gd\u00F3w","lat":"49.90818","lng":"20.19879"},{"Id":964,"country":"PL","name":"Giedlarowa","lat":"50.22689","lng":"22.40593"},{"Id":965,"country":"PL","name":"Gielni\u00F3w","lat":"51.40076","lng":"20.48126"},{"Id":966,"country":"PL","name":"Gier\u0142o\u017C","lat":"54.08134","lng":"21.49551"},{"Id":967,"country":"PL","name":"Gierzwa\u0142d","lat":"53.54128","lng":"20.08867"},{"Id":968,"country":"PL","name":"Gietrzwa\u0142d","lat":"53.74617","lng":"20.23742"},{"Id":969,"country":"PL","name":"Gi\u017Cycko","lat":"54.03811","lng":"21.76441"},{"Id":970,"country":"PL","name":"Garwolin","lat":"51.89747","lng":"21.61466"},{"Id":971,"country":"PL","name":"Garbatka-Letnisko","lat":"51.4832","lng":"21.61079"},{"Id":972,"country":"PL","name":"Grusz\u00F3w Wielki","lat":"50.19163","lng":"21.03144"},{"Id":973,"country":"PL","name":"Grudki","lat":"53.09488","lng":"23.66848"},{"Id":974,"country":"PL","name":"Gorzyce","lat":"50.6672","lng":"21.84013"},{"Id":975,"country":"PL","name":"Go\u015Bcierad\u00F3w","lat":"50.86859","lng":"22.00536"},{"Id":976,"country":"PL","name":"Goszczyn","lat":"51.73187","lng":"20.85154"},{"Id":977,"country":"PL","name":"Gowarcz\u00F3w","lat":"51.27845","lng":"20.43835"},{"Id":978,"country":"PL","name":"Goworowo","lat":"52.90083","lng":"21.55578"},{"Id":979,"country":"PL","name":"G\u00F3zd","lat":"51.37832","lng":"21.37914"},{"Id":980,"country":"PL","name":"Grabowiec","lat":"50.8209","lng":"23.55057"},{"Id":981,"country":"PL","name":"Grabownica Starze\u0144ska","lat":"49.65896","lng":"22.07754"},{"Id":982,"country":"PL","name":"Grudusk","lat":"53.05845","lng":"20.62494"},{"Id":983,"country":"PL","name":"Grajewo","lat":"53.64728","lng":"22.45537"},{"Id":984,"country":"PL","name":"Gr\u0119bk\u00F3w","lat":"52.26931","lng":"21.90974"},{"Id":985,"country":"PL","name":"Gr\u0119bosz\u00F3w","lat":"50.24501","lng":"20.77669"},{"Id":986,"country":"PL","name":"Gr\u0119b\u00F3w","lat":"50.56536","lng":"21.87404"},{"Id":987,"country":"PL","name":"Grodzisk Mazowiecki","lat":"52.10387","lng":"20.6337"},{"Id":988,"country":"PL","name":"Grodzisko Dolne","lat":"50.16238","lng":"22.46292"},{"Id":989,"country":"PL","name":"Grodzisko G\u00F3rne","lat":"50.1869","lng":"22.43786"},{"Id":990,"country":"PL","name":"Gr\u00F3jec","lat":"51.86252","lng":"20.86757"},{"Id":991,"country":"PL","name":"Gromnik","lat":"49.83843","lng":"20.96123"},{"Id":992,"country":"PL","name":"Granica","lat":"52.13359","lng":"20.80313"},{"Id":993,"country":"PL","name":"D\u017Awierzuty","lat":"53.70494","lng":"20.96037"},{"Id":994,"country":"PL","name":"Dzik\u00F3w Stary","lat":"50.24699","lng":"22.92984"},{"Id":995,"country":"PL","name":"Dzikowiec","lat":"50.27288","lng":"21.84365"},{"Id":996,"country":"PL","name":"Ko\u0142biel","lat":"52.06431","lng":"21.48153"},{"Id":997,"country":"PL","name":"Kolbuszowa","lat":"50.2441","lng":"21.7761"},{"Id":998,"country":"PL","name":"Kolno","lat":"53.41148","lng":"21.92905"},{"Id":999,"country":"PL","name":"Koma\u0144cza","lat":"49.33922","lng":"22.06166"},{"Id":1000,"country":"PL","name":"Komar\u00F3w-Osada","lat":"50.62888","lng":"23.4774"},{"Id":1001,"country":"PL","name":"Komar\u00F3wka Podlaska","lat":"51.80315","lng":"22.94392"},{"Id":1002,"country":"PL","name":"Komor\u00F3w","lat":"52.1456","lng":"20.81566"},{"Id":1003,"country":"PL","name":"Ko\u0144czyce","lat":"50.42575","lng":"22.15376"},{"Id":1004,"country":"PL","name":"Ko\u0142aczyce","lat":"49.80743","lng":"21.43407"},{"Id":1005,"country":"PL","name":"Konieczkowa","lat":"49.84208","lng":"21.9282"},{"Id":1006,"country":"PL","name":"Ko\u0144skowola","lat":"51.40922","lng":"22.05175"},{"Id":1007,"country":"PL","name":"Kie\u0142pin","lat":"52.35796","lng":"20.86214"},{"Id":1008,"country":"PL","name":"Kielce","lat":"50.87033","lng":"20.62752"},{"Id":1009,"country":"PL","name":"Kielan\u00F3wka","lat":"50.02616","lng":"21.92905"},{"Id":1010,"country":"PL","name":"K\u0119trzyn","lat":"54.07676","lng":"21.37527"},{"Id":1011,"country":"PL","name":"Jod\u0142\u00F3wka","lat":"49.8943","lng":"22.46653"},{"Id":1012,"country":"PL","name":"Jod\u0142\u00F3wka","lat":"49.99295","lng":"20.54821"},{"Id":1013,"country":"PL","name":"Joniec","lat":"52.60128","lng":"20.58177"},{"Id":1014,"country":"PL","name":"Ko\u0144skie","lat":"51.19166","lng":"20.40607"},{"Id":1015,"country":"PL","name":"Jonkowo","lat":"53.82817","lng":"20.31054"},{"Id":1016,"country":"PL","name":"Kokot\u00F3w","lat":"50.01254","lng":"20.07829"},{"Id":1017,"country":"PL","name":"Kock","lat":"51.63997","lng":"22.44391"},{"Id":1018,"country":"PL","name":"Jad\u00F3w","lat":"52.47849","lng":"21.63199"},{"Id":1019,"country":"PL","name":"Jadowniki","lat":"49.95884","lng":"20.64434"},{"Id":1020,"country":"PL","name":"Jagie\u0142\u0142a","lat":"50.0946","lng":"22.57261"},{"Id":1021,"country":"PL","name":"Jeziorany","lat":"53.97578","lng":"20.74639"},{"Id":1022,"country":"PL","name":"Je\u017Cowe","lat":"50.37486","lng":"22.12749"},{"Id":1023,"country":"PL","name":"Jod\u0142owa","lat":"49.87229","lng":"21.27897"},{"Id":1024,"country":"PL","name":"Kije","lat":"50.60721","lng":"20.57121"},{"Id":1025,"country":"PL","name":"K\u0142aj","lat":"49.99246","lng":"20.29904"},{"Id":1026,"country":"PL","name":"Kode\u0144","lat":"51.91171","lng":"23.60301"},{"Id":1027,"country":"PL","name":"Klemb\u00F3w","lat":"52.4065","lng":"21.33176"},{"Id":1028,"country":"PL","name":"Klimont\u00F3w","lat":"50.22843","lng":"20.3199"},{"Id":1029,"country":"PL","name":"Klimont\u00F3w","lat":"50.65588","lng":"21.45587"},{"Id":1030,"country":"PL","name":"K\u0142oczew","lat":"51.72134","lng":"21.96493"},{"Id":1031,"country":"PL","name":"Kluszkowce","lat":"49.451","lng":"20.30179"},{"Id":1032,"country":"PL","name":"Klw\u00F3w","lat":"51.53448","lng":"20.63644"},{"Id":1033,"country":"PL","name":"Knyszyn","lat":"53.31406","lng":"22.91963"},{"Id":1034,"country":"PL","name":"Kobylanka","lat":"49.66891","lng":"21.22293"},{"Id":1035,"country":"PL","name":"Koby\u0142ka","lat":"52.33953","lng":"21.19589"},{"Id":1036,"country":"PL","name":"Kleszczele","lat":"52.57314","lng":"23.32539"},{"Id":1037,"country":"PL","name":"J\u00F3zefos\u0142aw","lat":"52.1005","lng":"21.04629"},{"Id":1038,"country":"PL","name":"J\u00F3zef\u00F3w","lat":"50.48119","lng":"23.05404"},{"Id":1039,"country":"PL","name":"J\u00F3zef\u00F3w nad Wis\u0142\u0105","lat":"51.04183","lng":"21.83018"},{"Id":1040,"country":"PL","name":"Hacz\u00F3w","lat":"49.66152","lng":"21.8979"},{"Id":1041,"country":"PL","name":"Gzy","lat":"52.74045","lng":"20.94372"},{"Id":1042,"country":"PL","name":"Dubiecko","lat":"49.82608","lng":"22.39117"},{"Id":1043,"country":"PL","name":"Dubienka","lat":"51.04862","lng":"23.89252"},{"Id":1044,"country":"PL","name":"Duczki","lat":"52.36271","lng":"21.29047"},{"Id":1045,"country":"PL","name":"Dukla","lat":"49.55554","lng":"21.68317"},{"Id":1046,"country":"PL","name":"Dwikozy","lat":"50.73613","lng":"21.78864"},{"Id":1047,"country":"PL","name":"Dydnia","lat":"49.6864","lng":"22.17196"},{"Id":1048,"country":"PL","name":"Hajn\u00F3wka","lat":"52.74328","lng":"23.58122"},{"Id":1049,"country":"PL","name":"Dyn\u00F3w","lat":"49.81506","lng":"22.23388"},{"Id":1050,"country":"PL","name":"Dziadkowice","lat":"52.5638","lng":"22.91689"},{"Id":1051,"country":"PL","name":"Dzia\u0142dowo","lat":"53.23958","lng":"20.17004"},{"Id":1052,"country":"PL","name":"Dzia\u0142oszyce","lat":"50.36534","lng":"20.35226"},{"Id":1053,"country":"PL","name":"Dziekan\u00F3w Le\u015Bny","lat":"52.35243","lng":"20.85124"},{"Id":1054,"country":"PL","name":"Dzierz\u0105\u017Cnia","lat":"52.62811","lng":"20.23364"},{"Id":1055,"country":"PL","name":"Dzierzgowo","lat":"53.15279","lng":"20.66322"},{"Id":1056,"country":"PL","name":"Dzierzkowice","lat":"50.96019","lng":"22.06639"},{"Id":1057,"country":"PL","name":"Dziewin","lat":"50.07554","lng":"20.45491"},{"Id":1058,"country":"PL","name":"Dywity","lat":"53.83759","lng":"20.47817"},{"Id":1059,"country":"PL","name":"Kamionka","lat":"51.47165","lng":"22.46275"},{"Id":1060,"country":"PL","name":"K\u0119pie \u017Balesza\u0144skie","lat":"50.63983","lng":"21.88133"},{"Id":1061,"country":"PL","name":"Kazimierz Dolny","lat":"51.31911","lng":"21.95502"},{"Id":1062,"country":"PL","name":"J\u00F3zef\u00F3w","lat":"52.13707","lng":"21.23589"},{"Id":1063,"country":"PL","name":"J\u00F3zef\u00F3w","lat":"52.19446","lng":"20.69592"},{"Id":1064,"country":"PL","name":"Kabaty","lat":"52.13012","lng":"21.08148"},{"Id":1065,"country":"PL","name":"Kadzid\u0142o","lat":"53.23435","lng":"21.46454"},{"Id":1066,"country":"PL","name":"Ka\u0142uszyn","lat":"52.20669","lng":"21.80838"},{"Id":1067,"country":"PL","name":"Kamie\u0144","lat":"50.34064","lng":"22.13539"},{"Id":1068,"country":"PL","name":"Halin\u00F3w","lat":"52.2288","lng":"21.3551"},{"Id":1069,"country":"PL","name":"Kamienica","lat":"49.57533","lng":"20.34505"},{"Id":1070,"country":"PL","name":"Kamionka Wielka","lat":"49.56848","lng":"20.82364"},{"Id":1071,"country":"PL","name":"Kampinos","lat":"52.26837","lng":"20.46307"},{"Id":1072,"country":"PL","name":"Ka\u0144czuga","lat":"49.98346","lng":"22.41168"},{"Id":1073,"country":"PL","name":"Kani\u00F3w","lat":"50.98577","lng":"20.66391"},{"Id":1074,"country":"PL","name":"Karczew","lat":"52.07655","lng":"21.24962"},{"Id":1075,"country":"PL","name":"Karczmiska","lat":"51.22952","lng":"21.98158"},{"Id":1076,"country":"PL","name":"Karniewo","lat":"52.837","lng":"20.98886"},{"Id":1077,"country":"PL","name":"Kasina Wielka","lat":"49.72969","lng":"20.13554"},{"Id":1078,"country":"PL","name":"Kaw\u0119czyn Nowy","lat":"51.88597","lng":"20.24703"},{"Id":1079,"country":"PL","name":"Kazan\u00F3w","lat":"51.27593","lng":"21.46737"},{"Id":1080,"country":"PL","name":"Kazimierza Wielka","lat":"50.26564","lng":"20.49358"},{"Id":1081,"country":"PL","name":"Kamieniec","lat":"52.16614","lng":"16.46164"},{"Id":1082,"country":"PL","name":"Strach\u00F3wka","lat":"52.42692","lng":"21.635"},{"Id":1083,"country":"PL","name":"Kamieniec Wroc\u0142awski","lat":"51.07182","lng":"17.18193"},{"Id":1084,"country":"PL","name":"Kamie\u0144 Kraje\u0144ski","lat":"53.53352","lng":"17.52019"},{"Id":1085,"country":"PL","name":"Che\u0142m \u015Al\u0105ski","lat":"50.10825","lng":"19.19552"},{"Id":1086,"country":"PL","name":"Che\u0142m\u017Ca","lat":"53.18463","lng":"18.60466"},{"Id":1087,"country":"PL","name":"Ch\u0142apowo","lat":"54.80365","lng":"18.37352"},{"Id":1088,"country":"PL","name":"Chmielno","lat":"54.32543","lng":"18.0986"},{"Id":1089,"country":"PL","name":"Choce\u0144","lat":"52.48618","lng":"19.01339"},{"Id":1090,"country":"PL","name":"Chocian\u00F3w","lat":"51.41867","lng":"15.90172"},{"Id":1091,"country":"PL","name":"Chociwel","lat":"53.46696","lng":"15.33342"},{"Id":1092,"country":"PL","name":"Chocz","lat":"51.97642","lng":"17.86995"},{"Id":1093,"country":"PL","name":"Che\u0142mno","lat":"53.34855","lng":"18.4251"},{"Id":1094,"country":"PL","name":"Choczewo","lat":"54.73993","lng":"17.89175"},{"Id":1095,"country":"PL","name":"Chodecz","lat":"52.40513","lng":"19.02759"},{"Id":1096,"country":"PL","name":"Chod\u00F3w","lat":"52.24961","lng":"19.01218"},{"Id":1097,"country":"PL","name":"Chodzie\u017C","lat":"52.99505","lng":"16.9198"},{"Id":1098,"country":"PL","name":"Chojna","lat":"52.96389","lng":"14.42797"},{"Id":1099,"country":"PL","name":"Chojnice","lat":"53.69554","lng":"17.55701"},{"Id":1100,"country":"PL","name":"Chojn\u00F3w","lat":"51.27373","lng":"15.93661"},{"Id":1101,"country":"PL","name":"Chmielowice","lat":"50.64957","lng":"17.86669"},{"Id":1102,"country":"PL","name":"Choro\u0144","lat":"50.68178","lng":"19.26058"},{"Id":1103,"country":"PL","name":"Chocznia","lat":"49.87417","lng":"19.45438"},{"Id":1104,"country":"PL","name":"Byt\u00F3w","lat":"54.17057","lng":"17.49187"},{"Id":1105,"country":"PL","name":"Che\u0142mek","lat":"50.10163","lng":"19.24801"},{"Id":1106,"country":"PL","name":"Cha\u0142upki","lat":"49.92559","lng":"18.3173"},{"Id":1107,"country":"PL","name":"Tomaszkowice","lat":"49.97918","lng":"20.09966"},{"Id":1108,"country":"PL","name":"Lubicz G\u00F3rny","lat":"53.02686","lng":"18.771"},{"Id":1109,"country":"PL","name":"Lubicz Dolny","lat":"53.03151","lng":"18.74559"},{"Id":1110,"country":"PL","name":"Bartniczka","lat":"53.24776","lng":"19.60433"},{"Id":1111,"country":"PL","name":"Zalesie","lat":"50.01226","lng":"22.53262"},{"Id":1112,"country":"PL","name":"Rutki-Kossaki","lat":"53.08932","lng":"22.44011"},{"Id":1113,"country":"PL","name":"Radwanice","lat":"51.05413","lng":"17.10932"},{"Id":1114,"country":"PL","name":"Rotmanka","lat":"54.27425","lng":"18.6038"},{"Id":1115,"country":"PL","name":"Ch\u0105\u015Bno","lat":"52.19535","lng":"19.94259"},{"Id":1116,"country":"PL","name":"Nowe Grocholice","lat":"52.15924","lng":"20.9111"},{"Id":1117,"country":"PL","name":"Koszyce Wielkie","lat":"49.98076","lng":"20.94552"},{"Id":1118,"country":"PL","name":"I\u0142owo -Osada","lat":"53.16808","lng":"20.29295"},{"Id":1119,"country":"PL","name":"Ruda-Huta","lat":"51.23666","lng":"23.59486"},{"Id":1120,"country":"PL","name":"Cedry Wielkie","lat":"54.24707","lng":"18.84567"},{"Id":1121,"country":"PL","name":"Cedynia","lat":"52.87931","lng":"14.20249"},{"Id":1122,"country":"PL","name":"Cekcyn","lat":"53.57294","lng":"18.01123"},{"Id":1123,"country":"PL","name":"Cerkwica","lat":"54.00777","lng":"15.10903"},{"Id":1124,"country":"PL","name":"Cewice","lat":"54.43551","lng":"17.73485"},{"Id":1125,"country":"PL","name":"Radwanice","lat":"51.57083","lng":"15.94803"},{"Id":1126,"country":"PL","name":"Chotcza","lat":"51.24043","lng":"21.77662"},{"Id":1127,"country":"PL","name":"Byto\u0144","lat":"52.55757","lng":"18.59522"},{"Id":1128,"country":"PL","name":"Bytom","lat":"50.34802","lng":"18.93282"},{"Id":1129,"country":"PL","name":"Bydgoszcz","lat":"53.1235","lng":"18.00762"},{"Id":1130,"country":"PL","name":"Bystra","lat":"49.64796","lng":"19.77994"},{"Id":1131,"country":"PL","name":"Bystra","lat":"49.76042","lng":"19.05973"},{"Id":1132,"country":"PL","name":"Bystrzyca","lat":"50.96048","lng":"17.39702"},{"Id":1133,"country":"PL","name":"Bystrzyca K\u0142odzka","lat":"50.30179","lng":"16.64231"},{"Id":1134,"country":"PL","name":"Bytnica","lat":"52.15066","lng":"15.16946"},{"Id":1135,"country":"PL","name":"Budzy\u0144","lat":"52.88954","lng":"16.98812"},{"Id":1136,"country":"PL","name":"Brzeg Dolny","lat":"51.27299","lng":"16.70815"},{"Id":1137,"country":"PL","name":"Byczyna","lat":"51.11387","lng":"18.21413"},{"Id":1138,"country":"PL","name":"Choszczno","lat":"53.16905","lng":"15.42054"},{"Id":1139,"country":"PL","name":"Czarny B\u00F3r","lat":"50.77083","lng":"16.1305"},{"Id":1140,"country":"PL","name":"Czarny Dunajec","lat":"49.43663","lng":"19.85161"},{"Id":1141,"country":"PL","name":"Czastary","lat":"51.25869","lng":"18.31953"},{"Id":1142,"country":"PL","name":"Czechowice-Dziedzice","lat":"49.91342","lng":"19.00479"},{"Id":1143,"country":"PL","name":"Czelad\u017A","lat":"50.31542","lng":"19.07824"},{"Id":1144,"country":"PL","name":"Czempi\u0144","lat":"52.14404","lng":"16.76408"},{"Id":1145,"country":"PL","name":"Czermin","lat":"51.95008","lng":"17.74957"},{"Id":1146,"country":"PL","name":"Czernica","lat":"50.08391","lng":"18.40068"},{"Id":1147,"country":"PL","name":"Chro\u015Bcina","lat":"50.66578","lng":"17.81759"},{"Id":1148,"country":"PL","name":"Bytom Odrza\u0144ski","lat":"51.73062","lng":"15.82362"},{"Id":1149,"country":"PL","name":"Burzenin","lat":"51.46077","lng":"18.83233"},{"Id":1150,"country":"PL","name":"Bukowno","lat":"50.26474","lng":"19.45962"},{"Id":1151,"country":"PL","name":"Brze\u015B\u0107 Kujawski","lat":"52.60532","lng":"18.90173"},{"Id":1152,"country":"PL","name":"Brzeszcze","lat":"49.98203","lng":"19.15157"},{"Id":1153,"country":"PL","name":"Brzezinka","lat":"50.04237","lng":"19.1902"},{"Id":1154,"country":"PL","name":"Brzeziny","lat":"51.80023","lng":"19.75144"},{"Id":1155,"country":"PL","name":"Brzeziny \u015Al\u0105skie","lat":"50.35439","lng":"18.98129"},{"Id":1156,"country":"PL","name":"Brze\u017Anica","lat":"49.96497","lng":"19.61952"},{"Id":1157,"country":"PL","name":"Brze\u017Anio","lat":"51.494","lng":"18.62234"},{"Id":1158,"country":"PL","name":"Brzozie","lat":"53.32554","lng":"19.60485"},{"Id":1159,"country":"PL","name":"Bulowice","lat":"49.8765","lng":"19.28873"},{"Id":1160,"country":"PL","name":"Brzuze","lat":"53.05458","lng":"19.26195"},{"Id":1161,"country":"PL","name":"Buczkowice","lat":"49.72858","lng":"19.06908"},{"Id":1162,"country":"PL","name":"Budziszewice","lat":"51.66739","lng":"19.93581"},{"Id":1163,"country":"PL","name":"Budz\u00F3w","lat":"49.77622","lng":"19.67274"},{"Id":1164,"country":"PL","name":"Chorz\u00F3w","lat":"50.30582","lng":"18.9742"},{"Id":1165,"country":"PL","name":"Budz\u00F3w","lat":"50.59337","lng":"16.71038"},{"Id":1166,"country":"PL","name":"Bujak\u00F3w","lat":"49.85182","lng":"19.19432"},{"Id":1167,"country":"PL","name":"Buk","lat":"52.35532","lng":"16.51958"},{"Id":1168,"country":"PL","name":"Bukowiec","lat":"53.43383","lng":"18.24048"},{"Id":1169,"country":"PL","name":"Buczek","lat":"51.50228","lng":"19.16419"},{"Id":1170,"country":"PL","name":"Czernica","lat":"51.04609","lng":"17.2451"},{"Id":1171,"country":"PL","name":"Bia\u0142a","lat":"52.60524","lng":"19.64956"},{"Id":1172,"country":"PL","name":"Baranowo","lat":"52.43525","lng":"16.78631"},{"Id":1173,"country":"PL","name":"Kryspin\u00F3w","lat":"50.0438","lng":"19.79822"},{"Id":1174,"country":"PL","name":"Krzanowice","lat":"50.01822","lng":"18.12251"},{"Id":1175,"country":"PL","name":"Krzczon\u00F3w","lat":"49.73813","lng":"19.91821"},{"Id":1176,"country":"PL","name":"Krz\u0119cin","lat":"49.94316","lng":"19.74157"},{"Id":1177,"country":"PL","name":"Krz\u0119cin","lat":"53.0816","lng":"15.49008"},{"Id":1178,"country":"PL","name":"Krzemieniewo","lat":"51.85905","lng":"16.83354"},{"Id":1179,"country":"PL","name":"Krzepice","lat":"50.97059","lng":"18.72886"},{"Id":1180,"country":"PL","name":"Krzesz\u00F3w","lat":"49.75915","lng":"19.48915"},{"Id":1181,"country":"PL","name":"Kryry","lat":"50.01667","lng":"18.80568"},{"Id":1182,"country":"PL","name":"Krzesz\u00F3w","lat":"50.73434","lng":"16.06991"},{"Id":1183,"country":"PL","name":"Kozy","lat":"49.84756","lng":"19.14891"},{"Id":1184,"country":"PL","name":"Ko\u017Cuch\u00F3w","lat":"51.74558","lng":"15.59492"},{"Id":1185,"country":"PL","name":"Ko\u017Aminek","lat":"51.79874","lng":"18.33893"},{"Id":1186,"country":"PL","name":"Ko\u017Amin Wielkopolski","lat":"51.82712","lng":"17.45391"},{"Id":1187,"country":"PL","name":"Konopiska","lat":"50.72695","lng":"19.00781"},{"Id":1188,"country":"PL","name":"Konotop","lat":"51.93157","lng":"15.90391"},{"Id":1189,"country":"PL","name":"Konstantyn\u00F3w \u0141\u00F3dzki","lat":"51.74776","lng":"19.32564"},{"Id":1190,"country":"PL","name":"Korbiel\u00F3w","lat":"49.5682","lng":"19.35001"},{"Id":1191,"country":"PL","name":"Krzeszowice","lat":"50.14248","lng":"19.63223"},{"Id":1192,"country":"PL","name":"Korfant\u00F3w","lat":"50.48894","lng":"17.59898"},{"Id":1193,"country":"PL","name":"Krynica Morska","lat":"54.38051","lng":"19.44413"},{"Id":1194,"country":"PL","name":"Krupski M\u0142yn","lat":"50.57337","lng":"18.62251"},{"Id":1195,"country":"PL","name":"K\u0142odawa","lat":"52.25447","lng":"18.91352"},{"Id":1196,"country":"PL","name":"Kiernozia","lat":"52.26858","lng":"19.87092"},{"Id":1197,"country":"PL","name":"Krzykosy","lat":"52.11041","lng":"17.37411"},{"Id":1198,"country":"PL","name":"Koniak\u00F3w","lat":"49.55066","lng":"18.9491"},{"Id":1199,"country":"PL","name":"Konin","lat":"52.22338","lng":"18.25121"},{"Id":1200,"country":"PL","name":"Krajenka","lat":"53.29759","lng":"16.99079"},{"Id":1201,"country":"PL","name":"Krak\u00F3w","lat":"50.06143","lng":"19.93658"},{"Id":1202,"country":"PL","name":"Kramsk","lat":"52.26469","lng":"18.42407"},{"Id":1203,"country":"PL","name":"Kruszwica","lat":"52.67562","lng":"18.33131"},{"Id":1204,"country":"PL","name":"Krapkowice","lat":"50.47515","lng":"17.96539"},{"Id":1205,"country":"PL","name":"Krobia","lat":"51.77405","lng":"16.98237"},{"Id":1206,"country":"PL","name":"Kroczyce","lat":"50.56176","lng":"19.57"},{"Id":1207,"country":"PL","name":"Krokowa","lat":"54.77921","lng":"18.1616"},{"Id":1208,"country":"PL","name":"Kro\u015Bnice","lat":"51.47641","lng":"17.35917"},{"Id":1209,"country":"PL","name":"Kro\u015Bniewice","lat":"52.25592","lng":"19.17037"},{"Id":1210,"country":"PL","name":"Krosno","lat":"52.22357","lng":"16.83251"},{"Id":1211,"country":"PL","name":"Krosno Odrza\u0144skie","lat":"52.05492","lng":"15.09882"},{"Id":1212,"country":"PL","name":"Krotoszyn","lat":"51.69868","lng":"17.43738"},{"Id":1213,"country":"PL","name":"Kraszewice","lat":"51.51868","lng":"18.21997"},{"Id":1214,"country":"PL","name":"Ma\u0142a Wie\u015B","lat":"52.45779","lng":"20.10223"},{"Id":1215,"country":"PL","name":"K\u00F3rnik","lat":"52.24772","lng":"17.08949"},{"Id":1216,"country":"PL","name":"Koronowo","lat":"53.3137","lng":"17.93698"},{"Id":1217,"country":"PL","name":"D\u0105browa Che\u0142mi\u0144ska","lat":"53.17518","lng":"18.30537"},{"Id":1218,"country":"PL","name":"Mirk\u00F3w","lat":"51.16105","lng":"17.17026"},{"Id":1219,"country":"PL","name":"Chr\u00F3\u015Bcina","lat":"50.62306","lng":"17.36861"},{"Id":1220,"country":"PL","name":"Zdziechowice Drugie","lat":"50.78478","lng":"22.10999"},{"Id":1221,"country":"PL","name":"Kocierzew Po\u0142udniowy","lat":"52.21728","lng":"20.01812"},{"Id":1222,"country":"PL","name":"Nowe Ostrowy","lat":"52.30318","lng":"19.19217"},{"Id":1223,"country":"PL","name":"Rokiciny-Kolonia","lat":"51.66468","lng":"19.78312"},{"Id":1224,"country":"PL","name":"Godzisz\u00F3w Pierwszy","lat":"50.75753","lng":"22.48386"},{"Id":1225,"country":"PL","name":"D\u0105browa Zielona","lat":"50.84394","lng":"19.55652"},{"Id":1226,"country":"PL","name":"Be\u0142\u017Cec","lat":"50.38453","lng":"23.43839"},{"Id":1227,"country":"PL","name":"Wilczyce","lat":"51.12944","lng":"17.15472"},{"Id":1228,"country":"PL","name":"Skarbimierz Osiedle","lat":"50.84584","lng":"17.41865"},{"Id":1229,"country":"PL","name":"Czarna D\u0105br\u00F3wka","lat":"54.35631","lng":"17.56456"},{"Id":1230,"country":"PL","name":"Broniszewice","lat":"51.96696","lng":"17.81648"},{"Id":1231,"country":"PL","name":"\u0141\u0119townia","lat":"49.69745","lng":"19.87109"},{"Id":1232,"country":"PL","name":"\u015Awiercze","lat":"52.67055","lng":"20.7639"},{"Id":1233,"country":"PL","name":"Izabelin","lat":"52.29992","lng":"20.81729"},{"Id":1234,"country":"PL","name":"Wi\u015Bniewo","lat":"53.06474","lng":"20.34805"},{"Id":1235,"country":"PL","name":"Krzczon\u00F3w","lat":"51.00727","lng":"22.71097"},{"Id":1236,"country":"PL","name":"Kornowac","lat":"50.07179","lng":"18.32846"},{"Id":1237,"country":"PL","name":"Kosz\u0119cin","lat":"50.63411","lng":"18.8413"},{"Id":1238,"country":"PL","name":"Kozielice","lat":"53.10679","lng":"14.82237"},{"Id":1239,"country":"PL","name":"Kosakowo","lat":"54.58927","lng":"18.48484"},{"Id":1240,"country":"PL","name":"Ko\u015Bcian","lat":"52.08829","lng":"16.64866"},{"Id":1241,"country":"PL","name":"Ko\u015Bcielec","lat":"50.89713","lng":"19.2156"},{"Id":1242,"country":"PL","name":"Ko\u015Bcielec","lat":"52.17425","lng":"18.57067"},{"Id":1243,"country":"PL","name":"Ko\u015Bcielisko","lat":"49.29073","lng":"19.88929"},{"Id":1244,"country":"PL","name":"Koniecpol","lat":"50.77468","lng":"19.68896"},{"Id":1245,"country":"PL","name":"Ko\u015Bcierzyna","lat":"54.12226","lng":"17.98119"},{"Id":1246,"country":"PL","name":"Kostrzyn","lat":"52.39847","lng":"17.22811"},{"Id":1247,"country":"PL","name":"Ko\u017Ale","lat":"50.3356","lng":"18.14332"},{"Id":1248,"country":"PL","name":"Kostrzyn nad Odr\u0105","lat":"52.58713","lng":"14.64953"},{"Id":1249,"country":"PL","name":"Koszarawa","lat":"49.64462","lng":"19.40083"},{"Id":1250,"country":"PL","name":"Kotla","lat":"51.74542","lng":"16.03575"},{"Id":1251,"country":"PL","name":"Kotlin","lat":"51.91913","lng":"17.64825"},{"Id":1252,"country":"PL","name":"Kowal","lat":"52.53019","lng":"19.14767"},{"Id":1253,"country":"PL","name":"Kowale","lat":"54.30976","lng":"18.56149"},{"Id":1254,"country":"PL","name":"Kowalewo Pomorskie","lat":"53.15432","lng":"18.89868"},{"Id":1255,"country":"PL","name":"Kowary","lat":"50.79313","lng":"15.83559"},{"Id":1256,"country":"PL","name":"Kozieg\u0142owy","lat":"50.60035","lng":"19.16299"},{"Id":1257,"country":"PL","name":"Koszalin","lat":"54.19438","lng":"16.17222"},{"Id":1258,"country":"PL","name":"K\u0142obuck","lat":"50.90081","lng":"18.93674"},{"Id":1259,"country":"PL","name":"Czernich\u00F3w","lat":"49.75443","lng":"19.20947"},{"Id":1260,"country":"PL","name":"Czerniejewo","lat":"52.4264","lng":"17.48925"},{"Id":1261,"country":"PL","name":"Ursyn\u00F3w","lat":"52.15051","lng":"21.05041"},{"Id":1262,"country":"PL","name":"Brusy","lat":"53.88446","lng":"17.71786"},{"Id":1263,"country":"PL","name":"Bielice","lat":"53.20022","lng":"14.7276"},{"Id":1264,"country":"PL","name":"Bielsko-Biala","lat":"49.82245","lng":"19.04686"},{"Id":1265,"country":"PL","name":"Bolk\u00F3w","lat":"50.92203","lng":"16.10111"},{"Id":1266,"country":"PL","name":"Bolszewo","lat":"54.61801","lng":"18.17585"},{"Id":1267,"country":"PL","name":"Boniewo","lat":"52.46532","lng":"18.89116"},{"Id":1268,"country":"PL","name":"Borek Wielkopolski","lat":"51.91674","lng":"17.24133"},{"Id":1269,"country":"PL","name":"B\u0105k\u00F3w","lat":"49.89342","lng":"18.71495"},{"Id":1270,"country":"PL","name":"Boron\u00F3w","lat":"50.6746","lng":"18.90678"},{"Id":1271,"country":"PL","name":"Borucin","lat":"50.00763","lng":"18.15748"},{"Id":1272,"country":"PL","name":"Borz\u0119ta","lat":"49.86228","lng":"19.97924"},{"Id":1273,"country":"PL","name":"Borzytuchom","lat":"54.20021","lng":"17.36801"},{"Id":1274,"country":"PL","name":"Bozkow","lat":"50.51315","lng":"16.57528"},{"Id":1275,"country":"PL","name":"Bralin","lat":"51.28581","lng":"17.90325"},{"Id":1276,"country":"PL","name":"Branice","lat":"50.05108","lng":"17.79399"},{"Id":1277,"country":"PL","name":"Braniewo","lat":"54.37971","lng":"19.81959"},{"Id":1278,"country":"PL","name":"Br\u0105szewice","lat":"51.49902","lng":"18.44982"},{"Id":1279,"country":"PL","name":"Borowno","lat":"50.93247","lng":"19.2738"},{"Id":1280,"country":"PL","name":"Brd\u00F3w","lat":"52.3539","lng":"18.7298"},{"Id":1281,"country":"PL","name":"Bachowice","lat":"49.95812","lng":"19.49369"},{"Id":1282,"country":"PL","name":"Babimost","lat":"52.16488","lng":"15.82769"},{"Id":1283,"country":"PL","name":"Sztutowo","lat":"54.32679","lng":"19.17921"},{"Id":1284,"country":"PL","name":"Brody-Parcele","lat":"52.47797","lng":"20.74974"},{"Id":1285,"country":"PL","name":"Jelcz Laskowice","lat":"51.02134","lng":"17.31649"},{"Id":1286,"country":"PL","name":"Rzg\u00F3w","lat":"51.66345","lng":"19.49181"},{"Id":1287,"country":"PL","name":"Grzybowo","lat":"54.15892","lng":"15.48557"},{"Id":1288,"country":"PL","name":"Kro\u015Bcienko nad Dunajcem","lat":"49.44081","lng":"20.42624"},{"Id":1289,"country":"PL","name":"Praga Po\u0142udnie","lat":"52.24424","lng":"21.08545"},{"Id":1290,"country":"PL","name":"Bielawy","lat":"52.07539","lng":"19.65557"},{"Id":1291,"country":"PL","name":"Babor\u00F3w","lat":"50.1576","lng":"17.98513"},{"Id":1292,"country":"PL","name":"Praga P\u00F3\u0142noc","lat":"52.25443","lng":"21.03472"},{"Id":1293,"country":"PL","name":"Aleksandr\u00F3w Kujawski","lat":"52.87659","lng":"18.69345"},{"Id":1294,"country":"PL","name":"Aleksandr\u00F3w \u0141\u00F3dzki","lat":"51.81965","lng":"19.30384"},{"Id":1295,"country":"PL","name":"Alwernia","lat":"50.06056","lng":"19.53953"},{"Id":1296,"country":"PL","name":"Andrespol","lat":"51.72783","lng":"19.64175"},{"Id":1297,"country":"PL","name":"Andrych\u00F3w","lat":"49.85497","lng":"19.33834"},{"Id":1298,"country":"PL","name":"Babiak","lat":"52.3453","lng":"18.66663"},{"Id":1299,"country":"PL","name":"Babice","lat":"50.05565","lng":"19.19955"},{"Id":1300,"country":"PL","name":"Babice","lat":"50.06882","lng":"19.44906"},{"Id":1301,"country":"PL","name":"Aleksandr\u00F3w","lat":"51.27126","lng":"19.99005"},{"Id":1302,"country":"PL","name":"\u017Barki-Letnisko","lat":"50.62295","lng":"19.27508"},{"Id":1303,"country":"PL","name":"Brenna","lat":"49.72576","lng":"18.90249"},{"Id":1304,"country":"PL","name":"Brod\u0142a","lat":"50.04331","lng":"19.58879"},{"Id":1305,"country":"PL","name":"Bledzew","lat":"52.51711","lng":"15.41382"},{"Id":1306,"country":"PL","name":"Blizan\u00F3w","lat":"51.90372","lng":"18.01003"},{"Id":1307,"country":"PL","name":"Bobolice","lat":"53.95508","lng":"16.58893"},{"Id":1308,"country":"PL","name":"Bobowo","lat":"53.88378","lng":"18.55681"},{"Id":1309,"country":"PL","name":"Bielsk","lat":"52.6718","lng":"19.805"},{"Id":1310,"country":"PL","name":"Bobrowice","lat":"51.9485","lng":"15.09058"},{"Id":1311,"country":"PL","name":"Bobrowniki","lat":"52.78086","lng":"18.96026"},{"Id":1312,"country":"PL","name":"Bobrowo","lat":"53.28549","lng":"19.27053"},{"Id":1313,"country":"PL","name":"B\u0142aszki","lat":"51.65163","lng":"18.43472"},{"Id":1314,"country":"PL","name":"Bogatynia","lat":"50.90747","lng":"14.95634"},{"Id":1315,"country":"PL","name":"Bogusz\u00F3w-Gorce","lat":"50.75514","lng":"16.20494"},{"Id":1316,"country":"PL","name":"Bojad\u0142a","lat":"51.95321","lng":"15.81036"},{"Id":1317,"country":"PL","name":"Bojano","lat":"54.47123","lng":"18.38408"},{"Id":1318,"country":"PL","name":"Bojanowo","lat":"51.70749","lng":"16.74827"},{"Id":1319,"country":"PL","name":"Bojanowo Stare","lat":"51.99302","lng":"16.58369"},{"Id":1320,"country":"PL","name":"Bojszowy","lat":"50.0578","lng":"19.10145"},{"Id":1321,"country":"PL","name":"Bojszowy Nowe","lat":"50.05284","lng":"19.05012"},{"Id":1322,"country":"PL","name":"Bolechowice","lat":"50.14831","lng":"19.79273"},{"Id":1323,"country":"PL","name":"Bogdaniec","lat":"52.68897","lng":"15.07127"},{"Id":1324,"country":"PL","name":"Brenno","lat":"51.92257","lng":"16.21488"},{"Id":1325,"country":"PL","name":"Blachownia","lat":"50.78015","lng":"18.96389"},{"Id":1326,"country":"PL","name":"Bierzwnik","lat":"53.03567","lng":"15.665"},{"Id":1327,"country":"PL","name":"Brodnica","lat":"52.14123","lng":"16.89096"},{"Id":1328,"country":"PL","name":"Brodnica","lat":"53.25967","lng":"19.39653"},{"Id":1329,"country":"PL","name":"Brody","lat":"49.86742","lng":"19.69746"},{"Id":1330,"country":"PL","name":"Brody","lat":"51.79046","lng":"14.77335"},{"Id":1331,"country":"PL","name":"Br\u00F3jce","lat":"51.66436","lng":"19.64802"},{"Id":1332,"country":"PL","name":"Br\u00F3jce","lat":"52.31745","lng":"15.67414"},{"Id":1333,"country":"PL","name":"Brojce","lat":"53.95705","lng":"15.35975"},{"Id":1334,"country":"PL","name":"Bron\u00F3w","lat":"49.87782","lng":"18.92103"},{"Id":1335,"country":"PL","name":"Bie\u017Cu\u0144","lat":"52.96107","lng":"19.88976"},{"Id":1336,"country":"PL","name":"Brudze\u0144 Du\u017Cy","lat":"52.66884","lng":"19.50399"},{"Id":1337,"country":"PL","name":"Boles\u0142awiec","lat":"51.26418","lng":"15.5697"},{"Id":1338,"country":"PL","name":"Boles\u0142awiec","lat":"51.19866","lng":"18.19147"},{"Id":1339,"country":"PL","name":"Boles\u0142aw","lat":"50.29729","lng":"19.48073"},{"Id":1340,"country":"PL","name":"Bie\u0144k\u00F3wka","lat":"49.776","lng":"19.77179"},{"Id":1341,"country":"PL","name":"Bierawa","lat":"50.28111","lng":"18.24177"},{"Id":1342,"country":"PL","name":"Bierdzany","lat":"50.81852","lng":"18.15808"},{"Id":1343,"country":"PL","name":"Bieru\u0144","lat":"50.09","lng":"19.09291"},{"Id":1344,"country":"PL","name":"Bierut\u00F3w","lat":"51.12443","lng":"17.54607"},{"Id":1345,"country":"PL","name":"Boleszkowice","lat":"52.72493","lng":"14.56901"},{"Id":1346,"country":"PL","name":"Czernich\u00F3w","lat":"49.9892","lng":"19.68115"},{"Id":1347,"country":"PL","name":"Ostr\u00F3wek","lat":"52.38938","lng":"21.36738"},{"Id":1348,"country":"PL","name":"Podeb\u0142ocie","lat":"51.64023","lng":"21.7442"},{"Id":1349,"country":"PL","name":"Chrz\u0105stowice","lat":"50.66622","lng":"18.07294"},{"Id":1350,"country":"PL","name":"Chrzypsko Wielkie","lat":"52.62817","lng":"16.22852"},{"Id":1351,"country":"PL","name":"Chwaszczyno","lat":"54.44379","lng":"18.41875"},{"Id":1352,"country":"PL","name":"Chybie","lat":"49.90249","lng":"18.82756"},{"Id":1353,"country":"PL","name":"Chy\u017Cne","lat":"49.42672","lng":"19.66956"},{"Id":1354,"country":"PL","name":"Ciasna","lat":"50.75427","lng":"18.60835"},{"Id":1355,"country":"PL","name":"Ciechocin","lat":"53.05581","lng":"18.92635"},{"Id":1356,"country":"PL","name":"Ciechocinek","lat":"52.87908","lng":"18.79505"},{"Id":1357,"country":"PL","name":"Chrzan\u00F3w","lat":"50.13546","lng":"19.40203"},{"Id":1358,"country":"PL","name":"Ciech\u00F3w","lat":"51.13218","lng":"16.56773"},{"Id":1359,"country":"PL","name":"Chr\u00F3\u015Bcice","lat":"50.78076","lng":"17.81227"},{"Id":1360,"country":"PL","name":"Cieplice \u015Al\u0105skie Zdr\u00F3j","lat":"50.86545","lng":"15.68367"},{"Id":1361,"country":"PL","name":"Cieszk\u00F3w","lat":"51.63104","lng":"17.35726"},{"Id":1362,"country":"PL","name":"Cieszyn","lat":"49.75133","lng":"18.63213"},{"Id":1363,"country":"PL","name":"Cisek","lat":"50.28232","lng":"18.19988"},{"Id":1364,"country":"PL","name":"Cisiec","lat":"49.59213","lng":"19.1054"},{"Id":1365,"country":"PL","name":"Cisownica","lat":"49.72276","lng":"18.76207"},{"Id":1366,"country":"PL","name":"Cybinka","lat":"52.19446","lng":"14.79567"},{"Id":1367,"country":"PL","name":"Ci\u0119cina","lat":"49.6022","lng":"19.14102"},{"Id":1368,"country":"PL","name":"Czajk\u00F3w","lat":"51.49197","lng":"18.32726"},{"Id":1369,"country":"PL","name":"Chruszczobr\u00F3d","lat":"50.4147","lng":"19.32718"},{"Id":1370,"country":"PL","name":"Czarnk\u00F3w","lat":"52.90214","lng":"16.56413"},{"Id":1371,"country":"PL","name":"Czerniewice","lat":"52.51157","lng":"19.08694"},{"Id":1372,"country":"PL","name":"Czernikowo","lat":"52.94688","lng":"18.93803"},{"Id":1373,"country":"PL","name":"Czersk","lat":"53.79589","lng":"17.97647"},{"Id":1374,"country":"PL","name":"Czerwie\u0144sk","lat":"52.01289","lng":"15.42317"},{"Id":1375,"country":"PL","name":"Czerwionka-Leszczyny","lat":"50.15007","lng":"18.67762"},{"Id":1376,"country":"PL","name":"Czerwonak","lat":"52.46459","lng":"16.98169"},{"Id":1377,"country":"PL","name":"Cz\u0119stochowa","lat":"50.79646","lng":"19.12409"},{"Id":1378,"country":"PL","name":"Cz\u0142opa","lat":"53.08856","lng":"16.12098"},{"Id":1379,"country":"PL","name":"Chrostkowo","lat":"52.94378","lng":"19.25328"},{"Id":1380,"country":"PL","name":"Cz\u0142uch\u00F3w","lat":"53.66722","lng":"17.35883"},{"Id":1381,"country":"PL","name":"Czy\u017Cowice","lat":"49.9849","lng":"18.40433"},{"Id":1382,"country":"PL","name":"D\u0105bie","lat":"52.01056","lng":"15.15221"},{"Id":1383,"country":"PL","name":"D\u0105bie","lat":"52.08668","lng":"18.8225"},{"Id":1384,"country":"PL","name":"D\u0105browa","lat":"50.68352","lng":"17.74957"},{"Id":1385,"country":"PL","name":"D\u0105browa","lat":"52.74668","lng":"17.94342"},{"Id":1386,"country":"PL","name":"Czarno\u017Cy\u0142y","lat":"51.28533","lng":"18.56106"},{"Id":1387,"country":"PL","name":"Czarnow\u0105sy","lat":"50.72858","lng":"17.89819"},{"Id":1388,"country":"PL","name":"Czarnocin","lat":"51.59142","lng":"19.68158"},{"Id":1389,"country":"PL","name":"Czu\u0142\u00F3w","lat":"50.05956","lng":"19.70106"},{"Id":1390,"country":"PL","name":"Pog\u00F3rze","lat":"49.79961","lng":"18.84327"},{"Id":1391,"country":"PL","name":"Czaniec","lat":"49.85071","lng":"19.25354"},{"Id":1392,"country":"PL","name":"Czapury","lat":"52.31719","lng":"16.91268"},{"Id":1393,"country":"PL","name":"Be\u0142k","lat":"50.13048","lng":"18.71667"},{"Id":1394,"country":"PL","name":"Be\u0142sznica","lat":"49.97811","lng":"18.36313"},{"Id":1395,"country":"PL","name":"Bestwina","lat":"49.89712","lng":"19.05776"},{"Id":1396,"country":"PL","name":"Bestwinka","lat":"49.93272","lng":"19.06694"},{"Id":1397,"country":"PL","name":"Bia\u0142ka","lat":"49.69306","lng":"19.67033"},{"Id":1398,"country":"PL","name":"Bia\u0142a","lat":"50.38587","lng":"17.66035"},{"Id":1399,"country":"PL","name":"Bia\u0142e B\u0142ota","lat":"53.09516","lng":"17.91621"},{"Id":1400,"country":"PL","name":"Bia\u0142ogard","lat":"54.00696","lng":"15.98751"},{"Id":1401,"country":"PL","name":"Be\u0142chat\u00F3w","lat":"51.36883","lng":"19.35671"},{"Id":1402,"country":"PL","name":"Bia\u0142o\u015Bliwie","lat":"53.10461","lng":"17.12533"},{"Id":1403,"country":"PL","name":"Bielany Wroc\u0142awskie","lat":"51.0361","lng":"16.9677"},{"Id":1404,"country":"PL","name":"Bielawa","lat":"50.69075","lng":"16.623"},{"Id":1405,"country":"PL","name":"Banino","lat":"54.39215","lng":"18.40622"},{"Id":1406,"country":"PL","name":"Banie","lat":"53.10031","lng":"14.66228"},{"Id":1407,"country":"PL","name":"Balin","lat":"50.16799","lng":"19.3834"},{"Id":1408,"country":"PL","name":"Balice","lat":"50.08799","lng":"19.79462"},{"Id":1409,"country":"PL","name":"Biskupiec","lat":"53.50056","lng":"19.35056"},{"Id":1410,"country":"PL","name":"Sulbiny G\u00F3rne","lat":"51.87321","lng":"21.63174"},{"Id":1411,"country":"PL","name":"Bia\u0142y B\u00F3r","lat":"53.8967","lng":"16.83543"},{"Id":1412,"country":"PL","name":"Czaplinek","lat":"53.55775","lng":"16.23333"},{"Id":1413,"country":"PL","name":"B\u0119dzin","lat":"50.32607","lng":"19.12565"},{"Id":1414,"country":"PL","name":"B\u0119dk\u00F3w","lat":"51.58763","lng":"19.74956"},{"Id":1415,"country":"PL","name":"Czark\u00F3w","lat":"50.01833","lng":"18.90678"},{"Id":1416,"country":"PL","name":"Czarna Woda","lat":"53.84458","lng":"18.10006"},{"Id":1417,"country":"PL","name":"Czarne","lat":"53.6842","lng":"16.93834"},{"Id":1418,"country":"PL","name":"Ciep\u0142owody","lat":"50.67477","lng":"16.90871"},{"Id":1419,"country":"PL","name":"D\u0105browa G\u00F3rnicza","lat":"50.31818","lng":"19.2374"},{"Id":1420,"country":"PL","name":"Brzeg","lat":"50.86079","lng":"17.4674"},{"Id":1421,"country":"PL","name":"Brudzew","lat":"52.09949","lng":"18.60432"},{"Id":1422,"country":"PL","name":"Baran\u00F3w","lat":"51.26342","lng":"18.0047"},{"Id":1423,"country":"PL","name":"Bedlno","lat":"52.20829","lng":"19.57592"},{"Id":1424,"country":"PL","name":"Barcin","lat":"52.86607","lng":"17.94625"},{"Id":1425,"country":"PL","name":"Barlinek","lat":"52.99464","lng":"15.21864"},{"Id":1426,"country":"PL","name":"Baruchowo","lat":"52.49412","lng":"19.26496"},{"Id":1427,"country":"PL","name":"Barwa\u0142d G\u00F3rny","lat":"49.86211","lng":"19.61746"},{"Id":1428,"country":"PL","name":"Barwa\u0142d \u015Aredni","lat":"49.86632","lng":"19.5936"},{"Id":1429,"country":"PL","name":"Barwice","lat":"53.7449","lng":"16.3553"},{"Id":1430,"country":"PL","name":"Ba\u017Canowice","lat":"49.73791","lng":"18.70345"},{"Id":1431,"country":"PL","name":"B\u0119b\u0142o","lat":"50.18053","lng":"19.78741"},{"Id":1432,"country":"PL","name":"B\u0119czarka","lat":"49.87793","lng":"19.86723"},{"Id":1433,"country":"PL","name":"Bardo","lat":"50.50589","lng":"16.73986"},{"Id":1434,"country":"PL","name":"Klikuszowa","lat":"49.5193","lng":"19.9849"},{"Id":1435,"country":"PL","name":"Kleszcz\u00F3w","lat":"51.22355","lng":"19.30418"},{"Id":1436,"country":"PL","name":"Kleszczewo","lat":"52.33377","lng":"17.17163"},{"Id":1437,"country":"PL","name":"Gniezno","lat":"52.53481","lng":"17.58259"},{"Id":1438,"country":"PL","name":"Gocza\u0142kowice Zdr\u00F3j","lat":"49.94454","lng":"18.96927"},{"Id":1439,"country":"PL","name":"God\u00F3w","lat":"49.92481","lng":"18.4783"},{"Id":1440,"country":"PL","name":"Godziszka","lat":"49.71288","lng":"19.07587"},{"Id":1441,"country":"PL","name":"Gogolin","lat":"50.49222","lng":"18.01994"},{"Id":1442,"country":"PL","name":"Go\u0142a\u0144cz","lat":"52.94326","lng":"17.29995"},{"Id":1443,"country":"PL","name":"Golczewo","lat":"53.82426","lng":"14.97847"},{"Id":1444,"country":"PL","name":"Goleni\u00F3w","lat":"53.56392","lng":"14.82854"},{"Id":1445,"country":"PL","name":"Gnie\u017Cd\u017Cewo","lat":"54.74741","lng":"18.37944"},{"Id":1446,"country":"PL","name":"Golesz\u00F3w","lat":"49.7358","lng":"18.73675"},{"Id":1447,"country":"PL","name":"Golina","lat":"52.24315","lng":"18.09268"},{"Id":1448,"country":"PL","name":"Go\u0142kowice","lat":"49.91418","lng":"18.51419"},{"Id":1449,"country":"PL","name":"Golub-Dobrzy\u0144","lat":"53.11087","lng":"19.05381"},{"Id":1450,"country":"PL","name":"Go\u0142uch\u00F3w","lat":"51.85036","lng":"17.9314"},{"Id":1451,"country":"PL","name":"Gomunice","lat":"51.1689","lng":"19.49335"},{"Id":1452,"country":"PL","name":"G\u00F3ra","lat":"49.97971","lng":"19.10471"},{"Id":1453,"country":"PL","name":"G\u00F3ra","lat":"51.66638","lng":"16.53494"},{"Id":1454,"country":"PL","name":"G\u00F3ra \u015Awi\u0119tej Ma\u0142gorzaty","lat":"52.05713","lng":"19.31997"},{"Id":1455,"country":"PL","name":"Golina","lat":"51.91489","lng":"17.48268"},{"Id":1456,"country":"PL","name":"G\u00F3ra\u017Cd\u017Ce","lat":"50.52903","lng":"18.01003"},{"Id":1457,"country":"PL","name":"Gniewkowo","lat":"52.89461","lng":"18.40785"},{"Id":1458,"country":"PL","name":"Gniew","lat":"53.83602","lng":"18.8231"},{"Id":1459,"country":"PL","name":"D\u0142ugomi\u0142owice","lat":"50.28298","lng":"18.14873"},{"Id":1460,"country":"PL","name":"D\u0142ut\u00F3w","lat":"51.55936","lng":"19.39198"},{"Id":1461,"country":"PL","name":"Dmosin","lat":"51.92437","lng":"19.75934"},{"Id":1462,"country":"PL","name":"Dobiegniew","lat":"52.96947","lng":"15.75362"},{"Id":1463,"country":"PL","name":"Dobieszowice","lat":"50.39697","lng":"19.01304"},{"Id":1464,"country":"PL","name":"Dobra","lat":"51.91664","lng":"18.61556"},{"Id":1465,"country":"PL","name":"Dobra","lat":"53.48835","lng":"14.38617"},{"Id":1466,"country":"PL","name":"Dobra","lat":"53.58625","lng":"15.30977"},{"Id":1467,"country":"PL","name":"Gniewino","lat":"54.71709","lng":"18.01663"},{"Id":1468,"country":"PL","name":"Dobre","lat":"52.68398","lng":"18.57762"},{"Id":1469,"country":"PL","name":"Dobro\u0144","lat":"51.63885","lng":"19.24539"},{"Id":1470,"country":"PL","name":"Dobroszyce","lat":"51.26776","lng":"17.34205"},{"Id":1471,"country":"PL","name":"Dobrzany","lat":"53.35914","lng":"15.42886"},{"Id":1472,"country":"PL","name":"Dobrze\u0144 Wielki","lat":"50.76844","lng":"17.84652"},{"Id":1473,"country":"PL","name":"D\u0142ugo\u0142\u0119ka","lat":"51.17902","lng":"17.19137"},{"Id":1474,"country":"PL","name":"Karlino","lat":"54.03515","lng":"15.87739"},{"Id":1475,"country":"PL","name":"Fordon","lat":"53.14821","lng":"18.17036"},{"Id":1476,"country":"PL","name":"Frydek","lat":"49.99626","lng":"19.07278"},{"Id":1477,"country":"PL","name":"Dobrodzie\u0144","lat":"50.72874","lng":"18.44501"},{"Id":1478,"country":"PL","name":"Filipowice","lat":"50.15573","lng":"19.56579"},{"Id":1479,"country":"PL","name":"Gorenice","lat":"50.208","lng":"19.62038"},{"Id":1480,"country":"PL","name":"Gorzkowice","lat":"51.21533","lng":"19.59626"},{"Id":1481,"country":"PL","name":"Gilowice","lat":"49.71277","lng":"19.31045"},{"Id":1482,"country":"PL","name":"Gilowice","lat":"49.99505","lng":"19.09613"},{"Id":1483,"country":"PL","name":"Giza\u0142ki","lat":"52.04267","lng":"17.76936"},{"Id":1484,"country":"PL","name":"Gliwice","lat":"50.29761","lng":"18.67658"},{"Id":1485,"country":"PL","name":"G\u0142ogocz\u00F3w","lat":"49.89452","lng":"19.8741"},{"Id":1486,"country":"PL","name":"G\u0142og\u00F3w","lat":"51.66361","lng":"16.0845"},{"Id":1487,"country":"PL","name":"G\u0142og\u00F3wek","lat":"50.35355","lng":"17.86405"},{"Id":1488,"country":"PL","name":"G\u0142\u00F3wczyce","lat":"54.61935","lng":"17.3723"},{"Id":1489,"country":"PL","name":"Giera\u0142towice","lat":"50.22486","lng":"18.73384"},{"Id":1490,"country":"PL","name":"G\u0142owno","lat":"51.96463","lng":"19.71565"},{"Id":1491,"country":"PL","name":"G\u0142ucho\u0142azy","lat":"50.31505","lng":"17.38355"},{"Id":1492,"country":"PL","name":"Cielmice","lat":"50.08826","lng":"19.01896"},{"Id":1493,"country":"PL","name":"Karnice","lat":"54.03001","lng":"15.05496"},{"Id":1494,"country":"PL","name":"Karpacz","lat":"50.77669","lng":"15.75594"},{"Id":1495,"country":"PL","name":"Karsin","lat":"53.90768","lng":"17.92093"},{"Id":1496,"country":"PL","name":"\u0141\u0105ka Prudnicka","lat":"50.31061","lng":"17.52809"},{"Id":1497,"country":"PL","name":"Laliki","lat":"49.53446","lng":"19.00549"},{"Id":1498,"country":"PL","name":"\u0141ambinowice","lat":"50.53869","lng":"17.56096"},{"Id":1499,"country":"PL","name":"G\u0142ubczyce","lat":"50.20086","lng":"17.82858"},{"Id":1500,"country":"PL","name":"G\u00F3rki Wielkie","lat":"49.77971","lng":"18.83117"},{"Id":1501,"country":"PL","name":"Giera\u0142towice","lat":"49.94426","lng":"19.3907"},{"Id":1502,"country":"PL","name":"Frombork","lat":"54.35766","lng":"19.68029"},{"Id":1503,"country":"PL","name":"G\u00F3rzno","lat":"53.19779","lng":"19.64317"},{"Id":1504,"country":"PL","name":"Gniechowice","lat":"50.98804","lng":"16.83363"},{"Id":1505,"country":"PL","name":"Gniazd\u00F3w","lat":"50.59621","lng":"19.11132"},{"Id":1506,"country":"PL","name":"G\u0142uszyca G\u00F3rna","lat":"50.66606","lng":"16.37585"},{"Id":1507,"country":"PL","name":"G\u0142uszyca","lat":"50.68743","lng":"16.37173"},{"Id":1508,"country":"PL","name":"Frydrychowice","lat":"49.90481","lng":"19.41936"},{"Id":1509,"country":"PL","name":"G\u0105bin","lat":"52.39849","lng":"19.73509"},{"Id":1510,"country":"PL","name":"Galewice","lat":"51.34471","lng":"18.25756"},{"Id":1511,"country":"PL","name":"Giebu\u0142t\u00F3w","lat":"50.14556","lng":"19.87856"},{"Id":1512,"country":"PL","name":"Ga\u0142k\u00F3w Ma\u0142y","lat":"51.72554","lng":"19.71359"},{"Id":1513,"country":"PL","name":"Gardawice","lat":"50.11667","lng":"18.8"},{"Id":1514,"country":"PL","name":"Gardeja","lat":"53.61125","lng":"18.94687"},{"Id":1515,"country":"PL","name":"G\u0105sawa","lat":"52.76757","lng":"17.75579"},{"Id":1516,"country":"PL","name":"Gaszowice","lat":"50.10858","lng":"18.43042"},{"Id":1517,"country":"PL","name":"Gaworzyce","lat":"51.62773","lng":"15.88198"},{"Id":1518,"country":"PL","name":"Gda\u0144sk","lat":"54.35205","lng":"18.64637"},{"Id":1519,"country":"PL","name":"Gdynia","lat":"54.51889","lng":"18.53188"},{"Id":1520,"country":"PL","name":"Gidle","lat":"50.96199","lng":"19.47181"},{"Id":1521,"country":"PL","name":"Garcz","lat":"54.3476","lng":"18.10169"},{"Id":1522,"country":"PL","name":"Lanckorona","lat":"49.84496","lng":"19.71578"},{"Id":1523,"country":"PL","name":"Deszczno","lat":"52.66988","lng":"15.31975"},{"Id":1524,"country":"PL","name":"D\u0119bowiec","lat":"49.81406","lng":"18.72062"},{"Id":1525,"country":"PL","name":"Jawornik","lat":"49.8558","lng":"19.89315"},{"Id":1526,"country":"PL","name":"Jaworze","lat":"49.79351","lng":"18.9479"},{"Id":1527,"country":"PL","name":"Gorzyce","lat":"49.95945","lng":"18.39884"},{"Id":1528,"country":"PL","name":"Jaworzno","lat":"50.20528","lng":"19.27498"},{"Id":1529,"country":"PL","name":"Jaworzynka","lat":"49.54019","lng":"18.86996"},{"Id":1530,"country":"PL","name":"Jedlina-Zdr\u00F3j","lat":"50.72005","lng":"16.34645"},{"Id":1531,"country":"PL","name":"Jejkowice","lat":"50.10814","lng":"18.46767"},{"Id":1532,"country":"PL","name":"Jelcz","lat":"51.02102","lng":"17.32095"},{"Id":1533,"country":"PL","name":"Jawor","lat":"51.05132","lng":"16.19347"},{"Id":1534,"country":"PL","name":"Jelenia G\u00F3ra","lat":"50.89973","lng":"15.72899"},{"Id":1535,"country":"PL","name":"Jemielnica","lat":"50.54573","lng":"18.37807"},{"Id":1536,"country":"PL","name":"Jemielno","lat":"51.52434","lng":"16.54326"},{"Id":1537,"country":"PL","name":"Jenin","lat":"52.69647","lng":"15.09796"},{"Id":1538,"country":"PL","name":"Jerzmanowice","lat":"50.21267","lng":"19.74672"},{"Id":1539,"country":"PL","name":"Je\u017Cewo","lat":"53.51061","lng":"18.49437"},{"Id":1540,"country":"PL","name":"Jeziora Wielkie","lat":"52.53043","lng":"18.26803"},{"Id":1541,"country":"PL","name":"Je\u017C\u00F3w","lat":"51.81376","lng":"19.96877"},{"Id":1542,"country":"PL","name":"Jaworzyna \u015Al\u0105ska","lat":"50.9134","lng":"16.43241"},{"Id":1543,"country":"PL","name":"Jele\u015Bnia","lat":"49.64246","lng":"19.32701"},{"Id":1544,"country":"PL","name":"G\u00F3rzyca","lat":"52.49447","lng":"14.65503"},{"Id":1545,"country":"PL","name":"Jastrz\u0119bie Zdr\u00F3j","lat":"49.95542","lng":"18.57479"},{"Id":1546,"country":"PL","name":"Jastrz\u0105b","lat":"50.67019","lng":"19.1817"},{"Id":1547,"country":"PL","name":"Kamienna G\u00F3ra","lat":"50.78314","lng":"16.03037"},{"Id":1548,"country":"PL","name":"Kamiennik","lat":"50.57032","lng":"17.14979"},{"Id":1549,"country":"PL","name":"Kamie\u0144 Pomorski","lat":"53.96849","lng":"14.77262"},{"Id":1550,"country":"PL","name":"Kamie\u0144sk","lat":"51.20242","lng":"19.49661"},{"Id":1551,"country":"PL","name":"Kamyk","lat":"50.90179","lng":"19.02875"},